ID, Categories, Name,Latitude,Longitude,Accessibility_Level,Accessibility_rating 
1,Railway Station,Flemington Bridge Railway Station,-37.78816459,144.9392778,,
2,Church,St Francis Church,-37.81188478,144.9624226,,
3,Church,Wesley Church,-37.81015764,144.9681682,,
4,Church,St Augustines Church,-37.81697414,144.954862,,
5,Church,St James Church,-37.81012812,144.9524686,,
6,Church,St Mary's Anglican Church,-37.80316637,144.9537615,,
7,Church,Romanian Orthodox,-37.80523073,144.9669864,,
8,Church,Welsh Presbyterian Church,-37.81044788,144.9598733,,
9,Church,Church of Christ,-37.81045241,144.9638892,,
10,Church,Scots Church,-37.81456878,144.9685511,,
11,Church,St Michael's Uniting Church,-37.81438513,144.969174,,
12,Church,Greek Orthodox Church,-37.80880647,144.9782591,,
13,Church,St Peter's Eastern Hill,-37.80970867,144.9752592,,
14,Church,Lutheran Trinity Church,-37.81097571,144.9757295,,
15,Church,Holy Trinity,-37.81406671,144.9831973,,
16,Church,St Johns Lutheran Church,-37.82093997,144.9671211,,
17,Church,North Melbourne Uniting,-37.80355385,144.9476715,,
18,Church,Melbourne Unitarian Church,-37.81144878,144.9846649,,
19,Church,All Nations Uniting Church,-37.79591553,144.9689811,,
20,Church,Our Lady of Lebanon Church,-37.80257665,144.9693347,,
21,Church,St Michaels,-37.79405127,144.9453995,,
22,Church,Ukranian Catholic Cathedral,-37.79630846,144.9443135,,
23,Church,St Alban Anglican Church,-37.79421695,144.9416145,,
24,Church,Christ Church Kensington,-37.79321095,144.9272957,,
25,Church,Holy Rosary,-37.79480874,144.9283621,,
26,Church,Collins Street Baptist Church,-37.81470119,144.9680725,,
27,Church,St Thomas Aquinas Church,-37.83530769,144.9768091,,
28,Church,South Yarra Presbyterian Church,-37.84074736,144.985627,,
29,Church,The Parish of Christ Church South Yarra,-37.83862705,144.9860094,,
30,Major Sports & Recreation Facility,State Netball Hockey Centre,-37.785786,144.947581,,
31,Major Sports & Recreation Facility,Carlton Football Club,-37.78408644,144.9619678,,
32,Major Sports & Recreation Facility,Visy Park,-37.78343039,144.9619826,,
33,Art Gallery/Museum,Old Melbourne Gaol Crime & Justice Experience,-37.80776441,144.9654639,,
34,Major Sports & Recreation Facility,Flemington Racecourse,-37.79080826,144.912143,,
35,Railway Station,Southern Cross Railway Station,-37.81816331,144.9529447,,
36,Railway Station,Flagstaff Railway Station,-37.81223565,144.9563182,,
37,Major Sports & Recreation Facility,Melbourne Cricket Ground (MCG),-37.81949216,144.9834029,,
38,Outdoor Recreation Facility (Zoo/ Golf Course),Melbourne Zoo,-37.78444493,144.9513712,,
39,Art Gallery/Museum,Polly Woodside,-37.82425743,144.9534781,,
40,Art Gallery/Museum,Australian Centre for Contemporary Art,-37.82660454,144.9672529,,
41,Church,St Patricks Cathedral,-37.8101141,144.9759015,,
42,Art Gallery/Museum,Victorian Arts Centre,-37.82199473,144.9688373,,
43,Art Gallery/Museum,The Ian Potter Centre: NGV Australia,-37.81748314,144.969899,,
44,Art Gallery/Museum,Thoroughbred Racing Gallery,-37.81886627,144.9839701,,
45,Major Sports & Recreation Facility,AAMI Park,-37.82472527,144.983803,,
46,Art Gallery/Museum,Fox Classic Car Collection,-37.82137443,144.9484967,,
47,Outdoor Recreation Facility (Zoo/ Golf Course),Wonderland Park,-37.81169454,144.9368337,,
48,Major Sports & Recreation Facility,Rod Laver Arena,-37.82204561,144.9784872,,
49,Major Sports & Recreation Facility,Melbourne Park,-37.8209086,144.9787358,,
50,Major Sports & Recreation Facility,Margaret Court Arena,-37.82132521,144.9775911,,
51,Major Sports & Recreation Facility,Hisense Arena,-37.82311,144.9818348,,
52,Art Gallery/Museum,Melbourne Museum,-37.80355181,144.9716907,,
53,Railway Station,Parliament Railway Station,-37.81160618,144.9730173,,
54,Railway Station,Richmond Railway Station (Richmond) - Train stop,-37.82389927,144.9894008,,
55,Railway Station,Jolimont-MCG Railway Station (East Melbourne) - Train stop,-37.81656518,144.983641,,
56,Railway Station,Macaulay Railway Station (North Melbourne) - Train stop,-37.794964,144.9361908,,
57,Railway Station,Kensington Railway Station,-37.79391401,144.9307102,,
58,Railway Station,South Kensington Railway Station,-37.79972705,144.9258377,,
59,Railway Station,Royal Park Railway Station,-37.78126843,144.9516678,,
60,Art Gallery/Museum,National Sports Museum,-37.81895449,144.9846698,,
61,Railway Station,Parliament Railway Station,-37.81215728,144.973742,,
62,Railway Station,Parliament Railway Station,-37.81276211,144.9734338,,
63,Railway Station,Parliament Railway Station,-37.80957622,144.9723301,,
64,Railway Station,Flagstaff Railway Station,-37.81163844,144.9561187,,
65,Railway Station,Melbourne Central Railway Station,-37.80977593,144.9626701,,
66,Railway Station,Melbourne Central Railway Station,-37.81059924,144.9616906,,
67,Railway Station,Melbourne Central Railway Station,-37.810893,144.9631007,,
68,Railway Station,Flemington Racecourse Railway Station,-37.78691058,144.9081907,,
69,Railway Station,Showgrounds Railway Station (Flemington),-37.78346512,144.9149026,,
70,Railway Station,Newmarket Railway Station,-37.78727262,144.92906,,
71,Outdoor Recreation Facility (Zoo/ Golf Course),Riverside Park,-37.79483753,144.9156071,,
72,Outdoor Recreation Facility (Zoo/ Golf Course),Melbourne Showgrounds,-37.78230979,144.9108221,,
73,Art Gallery/Museum,Sinclair's Cottage,-37.81454075,144.980555,,
74,Art Gallery/Museum,Victoria Police Museum,-37.82221828,144.95404,,
75,Art Gallery/Museum,Immigration Museum,-37.81917988,144.9604268,,
76,Church,St Pauls Cathedral,-37.8169549,144.9676816,,
77,Railway Station,Flinders Street Railway Station,-37.8179063,144.9670648,,
78,Art Gallery/Museum,Fire Services Museum Victoria,-37.80857613,144.9753737,,
79,Art Gallery/Museum,The Ian Potter Museum Of Art,-37.79739396,144.9641567,,
80,Art Gallery/Museum,Koorie Heritage Trust Inc,-37.81338543,144.9540279,,
81,Railway Station,Melbourne Central Railway Station,-37.8100167,144.9637893,,
82,Major Sports & Recreation Facility,North Melbourne Recreation Centre (Aquatic),-37.799947,144.9432908,,
83,Major Sports & Recreation Facility,City Baths,-37.80715854,144.9631898,,
84,Railway Station,North Melbourne Railway Station,-37.80738236,144.9424298,,
85,Art Gallery/Museum,Cooks' Cottage,-37.81446049,144.9794713,,
86,Aquarium,Melbourne Aquarium,-37.82096278,144.9584257,,
87,Major Sports & Recreation Facility,Westpac Centre,-37.82424569,144.9797203,,
88,Art Gallery/Museum,Royal Exhibition Building,-37.80460262,144.9715219,,
89,Major Sports & Recreation Facility,Etihad Stadium,-37.81617605,144.9474963,,
90,Art Gallery/Museum,Australian Centre For The Moving Image (ACMI),-37.81761073,144.9690704,,
91,Art Gallery/Museum,The Museum Of Australian Chinese History,-37.81076861,144.9692339,,
92,Cafes and Restaurants,Donoghue's ,-37.8134766,144.9560169,,
93,Cafes and Restaurants,Subway,-37.81592157,144.9634979,,
94,Cafes and Restaurants,La Di Da,-37.81551353,144.9556244,,
95,Cafes and Restaurants,Riverside Deli & Coffee House,-37.81974184,144.9582721,,
96,Cafes and Restaurants,Amigos Hardware Lane,-37.8131434,144.9608667,,
97,Cafes and Restaurants,Degani At Urban Workshop,-37.8091842,144.9707325,,
98,Cafes and Restaurants,Alice Nevins,-37.81724878,144.9665517,,
99,Cafes and Restaurants,Blu Point Caffe,-37.80822377,144.9664575,,
100,Cafes and Restaurants,Sea Salt,-37.81760781,144.9656264,,
101,Cafes and Restaurants,The Attic Artisan Bread And Cafe,-37.81571393,144.9561073,,
102,Cafes and Restaurants,Cafe On Collins,-37.81662708,144.9638231,,
103,Cafes and Restaurants,Jung Gun Restaurant,-37.8134766,144.9560169,,
104,Cafes and Restaurants,Father John Cafe,-37.81012699,144.9720594,,
105,Cafes and Restaurants,1932 Cafe & Restaurant,-37.81528474,144.9661258,,
106,Cafes and Restaurants,Hudsons Elizabeth Street,-37.81591326,144.9641934,,
107,Cafes and Restaurants,Feast @ 520,-37.81780327,144.9572629,,
108,Cafes and Restaurants,Sakura Kaiten Sushi,-37.81309819,144.9716953,,
109,Cafes and Restaurants,Koko Black Chocolate,-37.81355886,144.9718392,,
110,Cafes and Restaurants,Entrecote City,-37.8139675,144.9702813,,
111,Cafes and Restaurants,Harry's At Stamford ,-37.8136886,144.9697676,,
112,Cafes and Restaurants,Healthy Nibbles Cafe,-37.81005686,144.9707149,,
113,Cafes and Restaurants,Earl Canteen,-37.81902044,144.9557275,,
114,Cafes and Restaurants,Little Colin,-37.81638558,144.9600859,,
115,Cafes and Restaurants,Taiwan Cafe,-37.81185964,144.9645317,,
116,Cafes and Restaurants,Footlights Restaurant,-37.81098009,144.96853,,
117,Cafes and Restaurants,Lily Blacks,-37.81221617,144.972451,,
118,Cafes and Restaurants,Mediterranean Deli,-37.81358646,144.9707087,,
119,Cafes and Restaurants,Rustica Canteen,-37.81146107,144.9598612,,
120,Cafes and Restaurants,Hudson's Coffee,-37.81012699,144.9720594,,
121,Cafes and Restaurants,Red Silks Restaurant & Bar,-37.8124312,144.9672768,,
122,Cafes and Restaurants,Movida Aqui,-37.81494883,144.9587607,,
123,Cafes and Restaurants,Ratee Thai,-37.81724878,144.9665517,,
124,Cafes and Restaurants,Om Vegetarian,-37.81584476,144.9663304,,
125,Cafes and Restaurants,Seven Star Korea,-37.8134766,144.9560169,,
126,Cafes and Restaurants,Tipo 00,-37.81358648,144.9619926,,
127,Cafes and Restaurants,Coffea Coffee,-37.80745984,144.9572395,,
128,Cafes and Restaurants,Spicy Korea,-37.81802782,144.9549054,,
129,Cafes and Restaurants,Tazio Birraria & Pizzeria,-37.81430616,144.9726281,,
130,Cafes and Restaurants,Merchant Osteria Veneta,-37.81853877,144.9581185,,
131,Cafes and Restaurants,Cafe Chinotto,-37.81784465,144.9699175,,
132,Cafes and Restaurants,Blue Bag,-37.81501535,144.9715746,,
133,Cafes and Restaurants,Melbourne Dae Jang Geum Korean BBQ,-37.81296443,144.9658365,,
134,Cafes and Restaurants,Tropicana Juice Bar,-37.81354034,144.962548,,
135,Cafes and Restaurants,French Fix,-37.81355361,144.9597543,,
136,Cafes and Restaurants,Fukutontei,-37.80992238,144.9670695,,
137,Cafes and Restaurants,Neapoli Wine Bar,-37.81355434,144.9674275,,
138,Cafes and Restaurants,Famish'd,-37.81636534,144.9578132,,
139,Cafes and Restaurants,Society Cafe,-37.81181007,144.9723947,,
140,Cafes and Restaurants,Cafenatics,-37.81123723,144.957114,,
141,Cafes and Restaurants,Charles LaTrobe Coffee Co,-37.81075363,144.9580529,,
142,Cafes and Restaurants,In a Rush,-37.81281453,144.9701092,,
143,Cafes and Restaurants,Ghin Khao,-37.81218452,144.9653591,,
144,Cafes and Restaurants,Maha Bar & Grill,-37.81819275,144.9625299,,
145,Cafes and Restaurants,Hawker Boys,-37.81303978,144.9606809,,
146,Cafes and Restaurants,Caboose Canteen,-37.81584777,144.9674304,,
147,Cafes and Restaurants,Sun Moth Canteen & Bar,-37.81291055,144.9614648,,
148,Cafes and Restaurants,Robot Sushi & Bar,-37.81719967,144.9638971,,
149,Cafes and Restaurants,Papa Goose / Mary Fortune Cocktail Bar,-37.81543506,144.9712228,,
150,Cafes and Restaurants,Hanabishi Japanese Restaurant,-37.81579101,144.9551249,,
151,Cafes and Restaurants,The Little Mule Cafe,-37.81379815,144.9623885,,
152,Cafes and Restaurants,Asian Pavillion ,-37.81430616,144.9726281,,
153,Cafes and Restaurants,Ants Bistro,-37.81132789,144.9679947,,
154,Cafes and Restaurants,French Saloon,-37.81354346,144.9613283,,
155,Cafes and Restaurants,Gekkazan,-37.81360425,144.9632879,,
156,Cafes and Restaurants,Hungry Jack's,-37.81264684,144.9677867,,
157,Cafes and Restaurants,Pronto On Flinders,-37.81784765,144.9632258,,
158,Cafes and Restaurants,Lua Bakery,-37.81365662,144.9564217,,
159,Cafes and Restaurants,Cafe 555,-37.81327283,144.9528962,,
160,Cafes and Restaurants,Caffe Duomo,-37.81567229,144.9645574,,
161,Cafes and Restaurants,Anchor Espresso,-37.81858716,144.9627098,,
162,Cafes and Restaurants,Riverland Bar,-37.81865919,144.9689349,,
163,Cafes and Restaurants,Andrews Hamburger,-37.80904835,144.9595755,,
164,Cafes and Restaurants,Ajisen Ramen,-37.81073331,144.9630189,,
165,Cafes and Restaurants,Cafe Kinetic,-37.81556733,144.9709643,,
166,Cafes and Restaurants,Two Fish Seafood Cafe,-37.81660734,144.95955,,
167,Cafes and Restaurants,The Journal Canteen/Oskars Kitchen,-37.81706291,144.9659028,,
168,Cafes and Restaurants,A25,-37.81303978,144.9606809,,
169,Cafes and Restaurants,Kanda Sushi Noodle Bar,-37.81107017,144.9596443,,
170,Cafes and Restaurants,Le Petite Creperie,-37.81416355,144.9617562,Not Applicable,0
171,Cafes and Restaurants,Punch Lane Wine Bar/Restaurant,-37.81092017,144.971363,,
172,Cafes and Restaurants,Cafenatics Equitable Place,-37.81611256,144.9633433,,
173,Cafes and Restaurants,Thailander,-37.8162542,144.9605354,,
174,Cafes and Restaurants,Lonsdale Coffee Delight,-37.80981882,144.9715313,,
175,Cafes and Restaurants,Don Don Japanese Restaurant,-37.81824465,144.9558446,,
176,Cafes and Restaurants,Spicy Fish Restaurant,-37.81272047,144.9662952,,
177,Cafes and Restaurants,In Zone Cafe,-37.81818484,144.9543659,,
178,Cafes and Restaurants,Kanda Sushi Noodle Bar,-37.81107017,144.9596443,,
179,Cafes and Restaurants,Grill'd Healthy Burgers,-37.81367176,144.9617817,,
180,Cafes and Restaurants,Podium,-37.80689662,144.9618657,,
181,Cafes and Restaurants,Elements Catering (Kiosk),-37.81398457,144.9693797,,
182,Cafes and Restaurants,The Basement Cafe,-37.81067976,144.9592776,,
183,Cafes and Restaurants,City Grill Room,-37.8134766,144.9560169,,
184,Cafes and Restaurants,Paco's Tacos,-37.81494883,144.9587607,,
185,Cafes and Restaurants,Crossways Food For Life,-37.81482941,144.9658852,,
186,Cafes and Restaurants,Manchuria,-37.81162502,144.9669911,,
187,Cafes and Restaurants,Cafenatics,-37.81123723,144.957114,,
188,Cafes and Restaurants,The Mint Bar & Restaurant,-37.81209045,144.9573609,,
189,Cafes and Restaurants,Salero Kito Padang Melbourne,-37.81376503,144.9665978,,
190,Cafes and Restaurants,Mad Mex,-37.81281453,144.9701092,,
191,Cafes and Restaurants,The Mug House,-37.81703239,144.9597623,,
192,Cafes and Restaurants,Hopetoun Tea Rooms,-37.81567229,144.9645574,,
193,Cafes and Restaurants,Wonton House,-37.81222178,144.967512,,
194,Cafes and Restaurants,Becco,-37.81143018,144.9710142,,
195,Cafes and Restaurants,Pok Pok Junior,-37.81636534,144.9578132,,
196,Cafes and Restaurants,Time Out Cafe,-37.81784465,144.9699175,,
197,Cafes and Restaurants,Grill'd ,-37.81760781,144.9656264,,
198,Cafes and Restaurants,Spiga,-37.81073331,144.9630189,,
199,Cafes and Restaurants,Gourmet Curry Hut,-37.81488174,144.9640121,,
200,Cafes and Restaurants,Bourke and Willis,-37.81531863,144.9573923,,
201,Cafes and Restaurants,The Salon By Louis Roderer,-37.81344503,144.9638295,,
202,Cafes and Restaurants,Cafe Sonex ,-37.81261513,144.9542745,,
203,Cafes and Restaurants,Tom Thumb Espresso,-37.8148555,144.9728353,,
204,Cafes and Restaurants,Rock the Wok,-37.81531863,144.9573923,,
205,Cafes and Restaurants,Twee's Hut Vietnamese Favourites,-37.81554941,144.9632938,,
206,Cafes and Restaurants,Emilia Trattoria,-37.81528248,144.9626388,,
207,Cafes and Restaurants,Le Petite Creperie,-37.81416355,144.9617562,,
208,Cafes and Restaurants,Paris End Cafe,-37.81330535,144.9728919,,
209,Cafes and Restaurants,Five Points,-37.81695942,144.956774,,
210,Cafes and Restaurants,Rice Workshop,-37.81224859,144.9657813,,
211,Cafes and Restaurants,Williams Bar Cafe,-37.81943285,144.9595106,,
212,Cafes and Restaurants,Queens Kitchen & Cafe,-37.80988001,144.9579933,,
213,Cafes and Restaurants,Ajisen Ramen,-37.81223835,144.9691823,,
214,Cafes and Restaurants,In A Rush ,-37.81677365,144.9555529,,
215,Cafes and Restaurants,Mama's Buoi,-37.81360425,144.9632879,,
216,Cafes and Restaurants,Jasper Kitchen ,-37.80750344,144.9596331,,
217,Cafes and Restaurants,Blahnik,-37.81554941,144.9632938,,
218,Cafes and Restaurants,Ba Noi,-37.8146364,144.9570408,,
219,Cafes and Restaurants,Xpressomondo,-37.81710105,144.9654844,,
220,Cafes and Restaurants,Kim Sing Chinese Restaurant,-37.81724878,144.9665517,,
221,Cafes and Restaurants,Laissez-Faire,-37.81492031,144.9707498,,
222,Cafes and Restaurants,Red Spice Road,-37.8152325,144.9614687,,
223,Cafes and Restaurants,Little Ipoh,-37.8107204,144.9591368,,
224,Cafes and Restaurants,Market Espresso & Trolley Hire,-37.80745984,144.9572395,,
225,Cafes and Restaurants,Spice Up Hot Pot Dips ,-37.80929555,144.9622513,,
226,Cafes and Restaurants,Pho Nom,-37.81245199,144.9638386,High Level,3
227,Cafes and Restaurants,Blu Point Caffe,-37.80822377,144.9664575,,
228,Cafes and Restaurants,City Wine Shop ,-37.81099169,144.9724651,,
229,Cafes and Restaurants,White Mojo,-37.81210735,144.9603936,,
230,Cafes and Restaurants,Mamma's Boy,-37.81260039,144.9731836,,
231,Cafes and Restaurants,Sahara Restaurant,-37.81107765,144.9641938,,
232,Cafes and Restaurants,Chick-In,-37.81867544,144.9543505,,
233,Cafes and Restaurants,Ba'get,-37.8100143,144.9608495,,
234,Cafes and Restaurants,Merlo Coffee,-37.80745984,144.9572395,,
235,Cafes and Restaurants,Dumpling World ,-37.81861166,144.9545688,,
236,Cafes and Restaurants,Coda Bar & Restaurant,-37.81579783,144.9698799,,
237,Cafes and Restaurants,Brunetti City Square ,-37.81584777,144.9674304,,
238,Cafes and Restaurants,Gloria Jean's Coffees,-37.81867544,144.9543505,,
239,Cafes and Restaurants,Threefold,-37.81825094,144.961389,,
240,Cafes and Restaurants,Travistock House Cafe,-37.81825094,144.961389,,
241,Cafes and Restaurants,In a Rush,-37.81858017,144.9591221,,
242,Cafes and Restaurants,The Mill,-37.81323451,144.960908,,
243,Cafes and Restaurants,City Wine Shop ,-37.81099169,144.9724651,,
244,Cafes and Restaurants,Eliana Lulu,-37.81664468,144.9654744,,
245,Cafes and Restaurants,Prime House,-37.81494883,144.9587607,,
246,Cafes and Restaurants,Nabe One,-37.81245199,144.9638386,,
247,Cafes and Restaurants,Mad Mex Flinders Lane,-37.81741878,144.9643316,,
248,Cafes and Restaurants,Pho Flinders,-37.81484304,144.963743,,
249,Cafes and Restaurants,Cafe Caledonia,-37.81072687,144.9686769,,
250,Cafes and Restaurants,Salero Kito Padang Melbourne,-37.81376503,144.9665978,,
251,Cafes and Restaurants,Strozzi Restaurant,-37.81706705,144.9632538,,
252,Cafes and Restaurants,Sensory Lab,-37.81436987,144.9648958,,
253,Cafes and Restaurants,Tsuta sushi,-37.81288006,144.9610121,,
254,Cafes and Restaurants,Cocoa Bean Cafe,-37.81595642,144.9589392,,
255,Cafes and Restaurants,Spin Coffee,-37.81636534,144.9578132,,
256,Cafes and Restaurants,The Mess Hall,-37.81200666,144.9717967,,
257,Cafes and Restaurants,Gourmet Curry Hut,-37.81488174,144.9640121,,
258,Cafes and Restaurants,The League Of Honest Coffee,-37.80913993,144.9684463,,
259,Cafes and Restaurants,Gangnam Pocha,-37.81372352,144.9549294,,
260,Cafes and Restaurants,William St Deli,-37.81317907,144.9566979,,
261,Cafes and Restaurants,Original Sushi,-37.8150902,144.9593794,,
262,Cafes and Restaurants,McDonalds,-37.81782922,144.9644996,,
263,Cafes and Restaurants,New Shanghai,-37.81245199,144.9638386,,
264,Cafes and Restaurants,Cafe Segovia,-37.81526825,144.9643901,,
265,Cafes and Restaurants,Chin Chin Restaurant,-37.81568875,144.9703998,,
266,Cafes and Restaurants,China Red,-37.81259409,144.9668768,,
267,Cafes and Restaurants,Degani Bakery Cafe,-37.81200936,144.9611344,,
268,Cafes and Restaurants,Cafe Vue,-37.81596878,144.9601101,,
269,Cafes and Restaurants,East Bar & Restaurant,-37.81290511,144.9727065,,
270,Cafes and Restaurants,Delicious Asian Cuisines & Pho,-37.81329521,144.9555653,,
271,Cafes and Restaurants,NY Deli,-37.81453148,144.9610146,,
272,Cafes and Restaurants,Xian Famous Foods / Little Lamb Hot Pot,-37.8102551,144.9672247,,
273,Cafes and Restaurants,Kedai Satay,-37.8156735,144.9556966,,
274,Cafes and Restaurants,Shou Sumiyaki,-37.81158809,144.9678632,,
275,Cafes and Restaurants,Mamma Mia,-37.81531863,144.9573923,,
276,Cafes and Restaurants,Hudson's Coffee,-37.8192157,144.9591876,,
277,Cafes and Restaurants,Bros Sushi,-37.80941489,144.9699756,,
278,Cafes and Restaurants,Wagaya Japanese Restaurant,-37.8124312,144.9672768,,
279,Cafes and Restaurants,Sharkfin Inn City,-37.81068514,144.9709749,,
280,Cafes and Restaurants,Goodovening,-37.81352285,144.9604697,,
281,Cafes and Restaurants,Postal Hall,-37.81350285,144.9689753,,
282,Cafes and Restaurants,Lee Ho Fook,-37.81559018,144.9713154,,
283,Cafes and Restaurants,Chilangos,-37.81531863,144.9573923,,
284,Cafes and Restaurants,Shanghai Street,-37.81321386,144.9622831,,
285,Cafes and Restaurants,Society Cafe,-37.81181007,144.9723947,,
286,Cafes and Restaurants,Chestnut Exchange Cafe,-37.81686865,144.957088,,
287,Cafes and Restaurants,Mr Ramen San,-37.8124312,144.9672768,,
288,Cafes and Restaurants,Bluebag,-37.8091842,144.9707325,,
289,Cafes and Restaurants,Sixpence Cafe,-37.81571393,144.9561073,,
290,Cafes and Restaurants,Tahini Lebanese Diner,-37.8146364,144.9570408,,
291,Cafes and Restaurants,Dosanko Larmen,-37.81128986,144.9699123,,
292,Cafes and Restaurants,Ishiya Stonegrill,-37.81132789,144.9679947,,
293,Cafes and Restaurants,McDonalds,-37.81180752,144.9645071,,
294,Cafes and Restaurants,The Cut Steakhouse,-37.81401267,144.9699104,,
295,Cafes and Restaurants,Ikkoryu Fukuoka Ramen,-37.81598754,144.9692478,,
296,Cafes and Restaurants,Two Fish Seafood Cafe,-37.81660734,144.95955,,
297,Cafes and Restaurants,Strozzi Restaurant,-37.81706705,144.9632538,,
298,Cafes and Restaurants,Madame's Kitchen,-37.8091842,144.9707325,,
299,Cafes and Restaurants,Shimbashi Japanese Soba & Sake Bar,-37.81131159,144.9713242,,
300,Cafes and Restaurants,Cafe Eurasia ,-37.81850425,144.954944,,
301,Cafes and Restaurants,Sushia,-37.81902044,144.9557275,,
302,Cafes and Restaurants,Starbucks ,-37.8112271,144.9642637,,
303,Cafes and Restaurants,King Jons,-37.81584127,144.9551492,,
304,Cafes and Restaurants,William St Deli,-37.81317907,144.9566979,,
305,Cafes and Restaurants,Affogato,-37.81398752,144.9612664,,
306,Cafes and Restaurants,O-Bento,-37.81722704,144.9627888,,
307,Cafes and Restaurants,Ombra,-37.81170263,144.9709443,,
308,Cafes and Restaurants,Bowery to Williamsburg,-37.8161284,144.9702912,,
309,Cafes and Restaurants,Etto St James,-37.81636534,144.9578132,,
310,Cafes and Restaurants,Shanghai Street Xiaolongboa & Dumpling,-37.81132789,144.9679947,,
311,Cafes and Restaurants,Doc Martins,-37.81393777,144.9705847,,
312,Cafes and Restaurants,Guk Bab,-37.8134766,144.9560169,,
313,Cafes and Restaurants,Schnitz QV,-37.810658,144.9657034,,
314,Cafes and Restaurants,Kuaizi Bar,-37.81642646,144.9662007,,
315,Cafes and Restaurants,Pronto On Flinders,-37.81784765,144.9632258,,
316,Cafes and Restaurants,Souperman,-37.81554941,144.9632938,,
317,Cafes and Restaurants,Il Nostro Posto,-37.81328955,144.961215,,
318,Cafes and Restaurants,That's Amore Bistro,-37.81581721,144.9628116,,
319,Cafes and Restaurants,In A Rush 150 Collins,-37.81419714,144.968181,,
320,Cafes and Restaurants,Crust Gourmet Pizza Bar Melbourne,-37.81291055,144.9614648,,
321,Cafes and Restaurants,Red Pepper Indian Restaurant,-37.81126209,144.9724607,,
322,Cafes and Restaurants,Gloria Jean's Coffees,-37.81272047,144.9662952,,
323,Cafes and Restaurants,Il Pom Italian,-37.81784465,144.9699175,,
324,Cafes and Restaurants,Bistro Du Peuple,-37.81719967,144.9638971,,
325,Cafes and Restaurants,Meat Fish Wine,-37.810658,144.9657034,,
326,Cafes and Restaurants,Curry Vault ,-37.81642893,144.9605225,,
327,Cafes and Restaurants,+39 Pizzeria & Antipasteria,-37.81327298,144.9617496,,
328,Cafes and Restaurants,Cafe On Collins,-37.81662708,144.9638231,,
329,Cafes and Restaurants,The Deanery,-37.81686635,144.9636498,,
330,Cafes and Restaurants,Buddabah,-37.81902044,144.9557275,,
331,Cafes and Restaurants,Hamodava Cafe,-37.81227429,144.9714499,,
332,Cafes and Restaurants,Axil Coffee Roasters,-37.81281453,144.9701092,,
333,Cafes and Restaurants,Shuji Sushi,-37.8134766,144.9560169,,
334,Cafes and Restaurants,Gyoza Gyoza & Momo Shabu Shabu,-37.81158808,144.9690101,,
335,Cafes and Restaurants,Dainty Sichuan Noodle Express,-37.81245199,144.9638386,,
336,Cafes and Restaurants,Melbourne Halal Food Centre ,-37.81729894,144.9648816,,
337,Cafes and Restaurants,Cafe Shots Espresso Bar,-37.81320274,144.960162,,
338,Cafes and Restaurants,Aix Cafe Creperie Salon,-37.8166033,144.9655966,,
339,Cafes and Restaurants,Romano's Coffee,-37.81647428,144.957018,,
340,Cafes and Restaurants,Il Sole,-37.81337023,144.9518789,,
341,Cafes and Restaurants,HuTong Dumpling Bar,-37.81187264,144.9694578,,
342,Cafes and Restaurants,Nando's - Bourke Place,-37.81571393,144.9561073,,
343,Cafes and Restaurants,Grand BBQ,-37.81272047,144.9662952,,
344,Cafes and Restaurants,Sichuan House,-37.8109979,144.9683249,,
345,Cafes and Restaurants,China Bar,-37.81211394,144.9646488,,
346,Cafes and Restaurants,Tower Shushi,-37.81281453,144.9701092,,
347,Cafes and Restaurants,Blu Nite,-37.81706705,144.9632538,,
348,Cafes and Restaurants,STREAT,-37.81560573,144.9617411,,
349,Cafes and Restaurants,Mama's Buoi,-37.81360425,144.9632879,,
350,Cafes and Restaurants,Jolly J's,-37.81724878,144.9665517,,
351,Cafes and Restaurants,Chilli India,-37.81073331,144.9630189,,
352,Cafes and Restaurants,T-Roy Browns,-37.81953163,144.9622868,,
353,Cafes and Restaurants,Hudson's Coffee,-37.8192157,144.9591876,,
354,Cafes and Restaurants,Fourteen On 10,-37.81084464,144.9620613,,
355,Cafes and Restaurants,Michelangelo,-37.81379647,144.9598741,,
356,Cafes and Restaurants,Shuji Sushi,-37.81758572,144.9621886,,
357,Cafes and Restaurants,Self Preservation,-37.81166963,144.9710755,,
358,Cafes and Restaurants,Brewer's Place,-37.81531863,144.9573923,,
359,Cafes and Restaurants,Menya Ramen,-37.80880991,144.9602369,,
360,Cafes and Restaurants,Cafe Andiamo,-37.81706291,144.9659028,,
361,Cafes and Restaurants,Gozleme Cafe,-37.80745984,144.9572395,,
362,Cafes and Restaurants,Grill Steak Seafood,-37.81318202,144.9611673,,
363,Cafes and Restaurants,The Brass Coq,-37.81299012,144.9555039,,
364,Cafes and Restaurants,Caffe E Torta,-37.81458812,144.964049,,
365,Cafes and Restaurants,Red Pepper Indian Restaurant,-37.81127672,144.972413,,
366,Cafes and Restaurants,ACMI Cafe & Bar,-37.81784465,144.9699175,,
367,Cafes and Restaurants,Flower Drum,-37.81207094,144.9692645,,
368,Cafes and Restaurants,Blackball at Chinatown,-37.81259409,144.9668768,,
369,Cafes and Restaurants,Cafe Caledonia,-37.81072687,144.9686769,,
370,Cafes and Restaurants,Max Bar & Restaurant,-37.81339488,144.9612623,,
371,Cafes and Restaurants,Gloria Jeans,-37.80977165,144.9614515,,
372,Cafes and Restaurants,Roll'd,-37.8142907,144.9614053,,
373,Cafes and Restaurants,Bottega Restaurant,-37.81168307,144.9710074,,
374,Cafes and Restaurants,Schnitz QV,-37.810658,144.9657034,,
375,Cafes and Restaurants,Bluestones 520 Cafe,-37.81527349,144.9583865,,
376,Cafes and Restaurants,Brewer's Place,-37.81531863,144.9573923,,
377,Cafes and Restaurants,Movida Next Door,-37.81670922,144.9690862,,
378,Cafes and Restaurants,Sally's Kitchen,-37.80893166,144.9688284,,
379,Cafes and Restaurants,Barista 101,-37.81492031,144.9707498,,
380,Cafes and Restaurants,Famish'd,-37.81491502,144.9629442,,
381,Cafes and Restaurants,Vons Restaurant & Bar,-37.8130703,144.9611061,,
382,Cafes and Restaurants,Francis Food & Coffee,-37.80967009,144.9566627,,
383,Cafes and Restaurants,D Food Connection,-37.81073331,144.9630189,,
384,Cafes and Restaurants,Movida Aqui,-37.81494883,144.9587607,,
385,Cafes and Restaurants,Signature Coffee,-37.81372701,144.9737201,,
386,Cafes and Restaurants,Kenzan Japanese Restaurant,-37.81430616,144.9726281,,
387,Cafes and Restaurants,Frozen by a Thousand Blessings,-37.81073331,144.9630189,,
388,Cafes and Restaurants,Bokchoy Tang,-37.81784465,144.9699175,,
389,Cafes and Restaurants,Guzman Y Gomez Swanston Street,-37.8112271,144.9642637,,
390,Cafes and Restaurants,Equinox Bar Restaurant,-37.81073331,144.9630189,,
391,Cafes and Restaurants,Time Out Cafe,-37.81784465,144.9699175,,
392,Cafes and Restaurants,Becasse Bakery,-37.81245199,144.9638386,,
393,Cafes and Restaurants,Waiters Restaurant,-37.81207814,144.9723505,,
394,Cafes and Restaurants,Melbourne Hwaro Korean BBQ Restaurant,-37.81501703,144.9556694,,
395,Cafes and Restaurants,Madame's Kitchen,-37.8091842,144.9707325,,
396,Cafes and Restaurants,Asian Beer Cafe,-37.81073331,144.9630189,,
397,Cafes and Restaurants,Dumplings Plus,-37.81245199,144.9638386,,
398,Cafes and Restaurants,Queen St Espresso ,-37.81773812,144.9616143,,
399,Cafes and Restaurants,Sushi Monger ,-37.81445406,144.9645323,,
400,Cafes and Restaurants,KCL (Koury's Coffee Lounge) ,-37.81848796,144.9611339,,
401,Cafes and Restaurants,Food Stories Chinese Canteen,-37.80869914,144.9687046,,
402,Cafes and Restaurants,Grill'd ,-37.81760781,144.9656264,,
403,Cafes and Restaurants,Cafe Dominoes,-37.81427826,144.9566434,,
404,Cafes and Restaurants,Sambal Kampung,-37.81601764,144.962689,,
405,Cafes and Restaurants,Pilgrim,-37.81865919,144.9689349,,
406,Cafes and Restaurants,Longrain Melbourne,-37.81058999,144.971183,,
407,Cafes and Restaurants,Earl Canteen,-37.81494883,144.9587607,,
408,Cafes and Restaurants,Phancy Cafe & Catering ,-37.80897917,144.9585116,,
409,Cafes and Restaurants,Five66,-37.82072034,144.9553465,,
410,Cafes and Restaurants,Goody's Burger House,-37.8105674,144.9673697,,
411,Cafes and Restaurants,Pho Flinders,-37.81866105,144.9654659,,
412,Cafes and Restaurants,Felt Restaurant,-37.81528647,144.9735899,,
413,Cafes and Restaurants,The Quarter,-37.81710105,144.9654844,,
414,Cafes and Restaurants,Lindt Chocolat Cafe,-37.81662781,144.9649331,,
415,Cafes and Restaurants,Affogato,-37.81398752,144.9612664,,
416,Cafes and Restaurants,Dotspot,-37.81626998,144.9540371,,
417,Cafes and Restaurants,The Crane,-37.81203484,144.9662792,,
418,Cafes and Restaurants,Dainty Sichuan Food,-37.81090617,144.9680174,,
419,Cafes and Restaurants,Bad Boys,-37.81005686,144.9707149,,
420,Cafes and Restaurants,Shuji Sushi,-37.8091842,144.9707325,,
421,Cafes and Restaurants,The Trust,-37.81864585,144.9604206,,
422,Cafes and Restaurants,Three Below,-37.81584777,144.9674304,,
423,Cafes and Restaurants,Nandos Northbank,-37.82099397,144.9565185,,
424,Cafes and Restaurants,Gordons Cafe & Bar,-37.81473293,144.9643486,,
425,Cafes and Restaurants,Apna Desi Indian Restaurant & Grocery,-37.81818484,144.9543659,,
426,Cafes and Restaurants,Signature Coffee,-37.81372701,144.9737201,,
427,Cafes and Restaurants,Arintji,-37.81784465,144.9699175,,
428,Cafes and Restaurants,360 Brew Bar,-37.81615528,144.9621844,,
429,Cafes and Restaurants,Gaylord Indian Restaurant,-37.81206133,144.9657704,,
430,Cafes and Restaurants,Seoul House Korean Restaurant,-37.81098272,144.9676444,,
431,Cafes and Restaurants,Dumplings Plus,-37.8119541,144.9645747,,
432,Cafes and Restaurants,Taxi Riverside,-37.81784465,144.9699175,,
433,Cafes and Restaurants,Nando's,-37.8103651,144.9637506,,
434,Cafes and Restaurants,1000 Wat,-37.81245199,144.9638386,,
435,Cafes and Restaurants,Plantation Speciality Coffee Roasters,-37.810658,144.9657034,,
436,Cafes and Restaurants,Dragon Boat,-37.81259409,144.9668768,,
437,Cafes and Restaurants,City Orchids Garden,-37.81158263,144.9688884,,
438,Cafes and Restaurants,La Vita Buona 'The Good Life' Cellar Bar Deli,-37.81584777,144.9674304,,
439,Cafes and Restaurants,Eclipse Coffee,-37.81853877,144.9581185,,
440,Cafes and Restaurants,Cafe Keyif,-37.8203648,144.9559791,,
441,Cafes and Restaurants,This Side of Paradise,-37.81592157,144.9634979,,
442,Cafes and Restaurants,Alice's Thai Restaurant,-37.81447237,144.9670943,,
443,Cafes and Restaurants,Kaefei,-37.81270785,144.9564474,,
444,Cafes and Restaurants,Thai Viet,-37.81507697,144.9657774,,
445,Cafes and Restaurants,Sushi Sushi,-37.8141284,144.9662156,,
446,Cafes and Restaurants,Oriental Tea House,-37.81551671,144.9620207,,
447,Cafes and Restaurants,Cafe Shots Espresso Bar,-37.81320274,144.960162,,
448,Cafes and Restaurants,The Groove Train,-37.81629382,144.9617186,,
449,Cafes and Restaurants,Spudbar,-37.81245199,144.9638386,,
450,Cafes and Restaurants,Sea Salt,-37.81760781,144.9656264,,
451,Cafes and Restaurants,Subway,-37.81592157,144.9634979,,
452,Cafes and Restaurants,I Love Dumplings,-37.80914342,144.9599969,,
453,Cafes and Restaurants,Cafenatics 367,-37.81728432,144.9624418,,
454,Cafes and Restaurants,Cafe Kinetic,-37.81556733,144.9709643,,
455,Cafes and Restaurants,Caffe Duomo,-37.81567229,144.9645574,,
456,Cafes and Restaurants,Mensousai Mugen,-37.81686635,144.9636498,,
457,Cafes and Restaurants,Chocolate Buddha,-37.81784465,144.9699175,,
458,Cafes and Restaurants,Kalamaki Greek Street Food,-37.81288006,144.9610121,,
459,Cafes and Restaurants,Ootoro On Collins,-37.81767359,144.9568348,,
460,Cafes and Restaurants,Andrews Hamburger,-37.80904835,144.9595755,,
461,Cafes and Restaurants,Barista Cafe,-37.80941489,144.9699756,,
462,Cafes and Restaurants,The Pancake Parlour,-37.81073331,144.9630189,,
463,Cafes and Restaurants,Eclipse Coffee,-37.81853877,144.9581185,,
464,Cafes and Restaurants,Max Brenner Chocolates,-37.810658,144.9657034,,
465,Cafes and Restaurants,Soul Cafe,-37.81309229,144.9649993,,
466,Cafes and Restaurants,Frescatis Fine Foods,-37.81251859,144.9552995,,
467,Cafes and Restaurants,Tadka Boom,-37.81531863,144.9573923,,
468,Cafes and Restaurants,Yum Yum Dumplings,-37.81719967,144.9638971,,
469,Cafes and Restaurants,Jolly J's,-37.81724878,144.9665517,,
470,Cafes and Restaurants,Brunetti Myer Melbourne,-37.81344503,144.9638295,,
471,Cafes and Restaurants,Ruyi,-37.81106615,144.9715514,,
472,Cafes and Restaurants,Darac Grill & Bar,-37.8090975,144.9620743,,
473,Cafes and Restaurants,Famish'd,-37.81330421,144.9693812,,
474,Cafes and Restaurants,Alibi Kitchen & Bar,-37.81456798,144.9590443,,
475,Cafes and Restaurants,Empress of China,-37.81131622,144.9689085,,
476,Cafes and Restaurants,The Overdraft Cafe,-37.81728432,144.9624418,,
477,Cafes and Restaurants,The Mint Bar & Restaurant,-37.81209045,144.9573609,,
478,Cafes and Restaurants,Delhi Rocks,-37.81500707,144.9553894,,
479,Cafes and Restaurants,Red Cliff Chinese Restaurant,-37.81247811,144.9599448,,
480,Cafes and Restaurants,Jang Gun Restuarant,-37.8134766,144.9560169,,
481,Cafes and Restaurants,Mr Huang Jin,-37.81988484,144.9566017,,
482,Cafes and Restaurants,Momo Station,-37.81376503,144.9665978,,
483,Cafes and Restaurants,Cafe Del Corso,-37.81786011,144.9627445,,
484,Cafes and Restaurants,Curry Vault ,-37.81642893,144.9605225,,
485,Cafes and Restaurants,Nick's Spaghetti Bar,-37.81386782,144.9557716,,
486,Cafes and Restaurants,Tokyo Maki,-37.82099397,144.9565185,,
487,Cafes and Restaurants,Nando's ,-37.80985709,144.9614913,,
488,Cafes and Restaurants,Sake Jr,-37.81636534,144.9578132,,
489,Cafes and Restaurants,O-Bento,-37.81753383,144.9574732,,
490,Cafes and Restaurants,Lindt Chocolat Cafe,-37.81662781,144.9649331,,
491,Cafes and Restaurants,Oli Levi,-37.81302823,144.9692543,,
492,Cafes and Restaurants,Berto's Bar,-37.81476776,144.9580871,,
493,Cafes and Restaurants,Mr Nice Guy,-37.8134766,144.9560169,,
494,Cafes and Restaurants,Menya Ramen,-37.80880991,144.9602369,,
495,Cafes and Restaurants,Toyko Pop,-37.81245199,144.9638386,,
496,Cafes and Restaurants,Chocolateria San Churro QV,-37.810658,144.9657034,,
497,Cafes and Restaurants,Laurent Boulangerie Patisserie,-37.81473293,144.9643486,,
498,Cafes and Restaurants,Corner & Bench,-37.81443611,144.961492,,
499,Cafes and Restaurants,Melbourne Hwaro Korean BBQ Restaurant,-37.81501703,144.9556694,,
500,Cafes and Restaurants,Rose Garden Barbecue Shop,-37.80885861,144.9603439,,
501,Cafes and Restaurants,Pomodoro Sardo,-37.81053336,144.9691194,,
502,Cafes and Restaurants,Big Boy BBQ,-37.81398752,144.9612664,,
503,Cafes and Restaurants,Cafe Euro Food & Wine Bar,-37.81499761,144.9591969,,
504,Cafes and Restaurants,Box On Collins Restaurant,-37.81546677,144.9677066,,
505,Cafes and Restaurants,Brother Thomas Coffee,-37.81124428,144.9565783,,
506,Cafes and Restaurants,Roll'D Vietnamese Kitchen ,-37.81531863,144.9573923,,
507,Cafes and Restaurants,Sakae,-37.81531863,144.9573923,,
508,Cafes and Restaurants,Lucy Liu's Kitchen & Bar,-37.81599798,144.9698948,,
509,Cafes and Restaurants,Pho 24,-37.8153588,144.9535531,,
510,Cafes and Restaurants,Cafe Vicolino,-37.81664468,144.9654744,,
511,Cafes and Restaurants,Suda,-37.8134766,144.9560169,,
512,Cafes and Restaurants,Equinox Bar Restaurant,-37.81073331,144.9630189,,
513,Cafes and Restaurants,Cafe Issus,-37.8166033,144.9655966,,
514,Cafes and Restaurants,Caffe E Biscotti,-37.81528948,144.9642254,,
515,Cafes and Restaurants,Cafe Dominoes,-37.81427826,144.9566434,,
516,Cafes and Restaurants,Soul Cafe,-37.81309229,144.9649993,,
517,Cafes and Restaurants,Tempo Bar & Cafe,-37.81630648,144.9589224,,
518,Cafes and Restaurants,Earl Canteen,-37.81494883,144.9587607,,
519,Cafes and Restaurants,Dumpling King,-37.81281453,144.9701092,,
520,Cafes and Restaurants,Doc Martins,-37.81393777,144.9705847,,
521,Cafes and Restaurants,Ghin Khao,-37.81218452,144.9653591,,
522,Cafes and Restaurants,CNK Korean Cuisine,-37.81131629,144.9609484,,
523,Cafes and Restaurants,65 Degrees ,-37.80874125,144.9687244,,
524,Cafes and Restaurants,Frescatis Fine Foods,-37.81251859,144.9552995,,
525,Cafes and Restaurants,Syracuse Restaurant - Bar ,-37.81638558,144.9600859,,
526,Cafes and Restaurants,Ramen Ya,-37.81245199,144.9638386,,
527,Cafes and Restaurants,The Firm Espresso Bar,-37.8130525,144.9583529,,
528,Cafes and Restaurants,Francis Food & Coffee,-37.80967009,144.9566627,,
529,Cafes and Restaurants,Goodovening,-37.81352285,144.9604697,,
530,Cafes and Restaurants,Choix Creperie Cafe,-37.81867544,144.9543505,,
531,Cafes and Restaurants,Chocolate Buddha,-37.81784465,144.9699175,,
532,Cafes and Restaurants,Dinkum Pies,-37.81528948,144.9642254,,
533,Cafes and Restaurants,Locanda Italian Steakhouse,-37.81121462,144.9706454,,
534,Cafes and Restaurants,Coffea Coffee,-37.80745984,144.9572395,,
535,Cafes and Restaurants,Nene Chicken (Elizabeth St),-37.80894909,144.9611573,,
536,Cafes and Restaurants,Gopal's Vegetarian Restaurant,-37.8144111,144.9657351,,
537,Cafes and Restaurants,Bottega Restaurant,-37.81168307,144.9710074,,
538,Cafes and Restaurants,Kirk's Wine Bar,-37.81354346,144.9613283,,
539,Cafes and Restaurants,Mekong Vietnam,-37.81239263,144.9647784,,
540,Cafes and Restaurants,Triim,-37.8138513,144.9612043,,
541,Cafes and Restaurants,Old Town White Cafe,-37.81155119,144.9615988,,
542,Cafes and Restaurants,SPQR Pizzeria,-37.81092017,144.971363,,
543,Cafes and Restaurants,Warra Warra,-37.81376503,144.9665978,,
544,Cafes and Restaurants,Crema,-37.81722704,144.9627888,,
545,Cafes and Restaurants,Movenpick Icecream,-37.810658,144.9657034,,
546,Cafes and Restaurants,Shanghai Street / Momo Tea,-37.80829662,144.9669433,,
547,Cafes and Restaurants,Black Rice,-37.81902044,144.9557275,,
548,Cafes and Restaurants,Nine Taiwanese Dessert House,-37.81169356,144.9651047,,
549,Cafes and Restaurants,Bistrot D'Orsay,-37.81485585,144.9672778,,
550,Cafes and Restaurants,Morgans at 401,-37.81739636,144.9612229,,
551,Cafes and Restaurants,Sool Tong,-37.81386746,144.9599073,,
552,Cafes and Restaurants,Cafe 34,-37.81798973,144.9624375,,
553,Cafes and Restaurants,Pepper Lunch,-37.81146864,144.9615613,,
554,Cafes and Restaurants,Ba Noi,-37.8146364,144.9570408,,
555,Cafes and Restaurants,White Mojo,-37.81210735,144.9603936,,
556,Cafes and Restaurants,Hairy Canary,-37.81384227,144.9671568,,
557,Cafes and Restaurants,Ramen Bankara,-37.81101861,144.9641668,,
558,Cafes and Restaurants,Mabrown Curry House,-37.81281453,144.9701092,,
559,Cafes and Restaurants,Mr Nice Guy,-37.8134766,144.9560169,,
560,Cafes and Restaurants,Corner & Bench,-37.81443611,144.961492,,
561,Cafes and Restaurants,RMB Cafe,-37.81710105,144.9654844,,
562,Cafes and Restaurants,The Pressed Lab,-37.81902044,144.9557275,,
563,Cafes and Restaurants,Degani At Urban Workshop,-37.8091842,144.9707325,,
564,Cafes and Restaurants,Edoya Japanese Restaurant,-37.81298798,144.9684168,,
565,Cafes and Restaurants,Tsuta sushi,-37.81288006,144.9610121,,
566,Cafes and Restaurants,Starbucks,-37.81584777,144.9674304,,
567,Cafes and Restaurants,Cafenatics Equitable Place,-37.81611256,144.9633433,,
568,Cafes and Restaurants,La Stradda Cafe,-37.81146268,144.9566886,,
569,Cafes and Restaurants,Kenny's Bakery Cafe,-37.81281453,144.9701092,,
570,Cafes and Restaurants,Nando's,-37.81754524,144.9643684,,
571,Cafes and Restaurants,Hawker Boys,-37.81303978,144.9606809,,
572,Cafes and Restaurants,Market Lane Coffee,-37.81314231,144.9732575,,
573,Cafes and Restaurants,Sempre Pizza & Calzone,-37.8119837,144.9719053,,
574,Cafes and Restaurants,Subway,-37.81467989,144.9602243,,
575,Cafes and Restaurants,Thai Viet,-37.81507697,144.9657774,,
576,Cafes and Restaurants,Shanghai Village,-37.81124441,144.9690756,,
577,Cafes and Restaurants,The Vine Coffee Roasters,-37.80826292,144.9626932,,
578,Cafes and Restaurants,Kri Kri Restaurant,-37.81083595,144.9715059,,
579,Cafes and Restaurants,Ganache Chocolate Lounge,-37.81606673,144.9658313,,
580,Cafes and Restaurants,Roll'd Lonsdale Street,-37.8091842,144.9707325,,
581,Cafes and Restaurants,Pad Thai,-37.81296443,144.9658365,,
582,Cafes and Restaurants,Operator 25,-37.81071591,144.9571621,,
583,Cafes and Restaurants,Torasan Ramen,-37.80894909,144.9611573,,
584,Cafes and Restaurants,Grill'd Healthy Burgers,-37.81073331,144.9630189,,
585,Cafes and Restaurants,Cumulus Inc,-37.81494022,144.9731346,,
586,Cafes and Restaurants,Om Vegetarian,-37.81507697,144.9657774,,
587,Cafes and Restaurants,Amigos Hardware Lane,-37.8131434,144.9608667,,
588,Cafes and Restaurants,Supernormal,-37.81563788,144.9682892,,
589,Cafes and Restaurants,Trunk,-37.80938323,144.9689066,,
590,Cafes and Restaurants,Pretty Mama,-37.8153588,144.9535531,,
591,Cafes and Restaurants,Klatch,-37.81728432,144.9624418,,
592,Cafes and Restaurants,Cafe Le Petite Bourke Patisserie ,-37.81033978,144.9714138,,
593,Cafes and Restaurants,Simply Spanish,-37.81636534,144.9578132,,
594,Cafes and Restaurants,Brother Baba Budan,-37.81353635,144.9621697,,
595,Cafes and Restaurants,Cafe Eurasia ,-37.81850425,144.954944,,
596,Cafes and Restaurants,Sarti Restaurant & Bar,-37.81390779,144.9675807,,
597,Cafes and Restaurants,Home Kitchen & Bar,-37.81132789,144.9679947,,
598,Cafes and Restaurants,CJ Lunchbar ,-37.81187439,144.9603411,,
599,Cafes and Restaurants,Little Colin,-37.81638558,144.9600859,,
600,Cafes and Restaurants,Sung's Kitchen,-37.80819713,144.9589367,,
601,Cafes and Restaurants,Original Sushi,-37.8150902,144.9593794,,
602,Cafes and Restaurants,Cafe Bar Mile,-37.81719967,144.9638971,,
603,Cafes and Restaurants,Cafe Cavallino,-37.80941489,144.9699756,,
604,Cafes and Restaurants,Fonda Flinders Lane,-37.81489476,144.9732924,,
605,Cafes and Restaurants,Bad Boys,-37.81005686,144.9707149,,
606,Cafes and Restaurants,Rice Paper Scissors Asian Kitchen,-37.81131159,144.9713242,,
607,Cafes and Restaurants,Mr Mason,-37.81767359,144.9568348,,
608,Cafes and Restaurants,Bowery to Williamsburg,-37.8161284,144.9702912,,
609,Cafes and Restaurants,Dikstein's Corner Bar,-37.81631094,144.9603413,,
610,Cafes and Restaurants,Fancy Hank's,-37.81217956,144.9710404,,
611,Cafes and Restaurants,Hungry Jack's,-37.80945732,144.9634198,,
612,Cafes and Restaurants,Shuji Sushi,-37.81649503,144.9659624,,
613,Cafes and Restaurants,Kaneda Japanese Restaurant,-37.8124312,144.9672768,,
614,Cafes and Restaurants,Mad Mex,-37.810658,144.9657034,,
615,Cafes and Restaurants,Three Drops Espresso,-37.81584476,144.9663304,,
616,Cafes and Restaurants,Laurent Boulangerie Patisserie,-37.81531863,144.9573923,,
617,Cafes and Restaurants,Cafe Intimo,-37.81638558,144.9600859,,
618,Cafes and Restaurants,Max Brenner Chocolates,-37.810658,144.9657034,,
619,Cafes and Restaurants,Meat Fish Wine,-37.810658,144.9657034,,
620,Cafes and Restaurants,Rare Steakhouse Midtown,-37.81338564,144.9607769,,
621,Cafes and Restaurants,Yak Italian Kitchen & Bar,-37.81543178,144.9687553,,
622,Cafes and Restaurants,Subway,-37.81674222,144.9667041,,
623,Cafes and Restaurants,Roll'd Lonsdale Street,-37.8091842,144.9707325,,
624,Cafes and Restaurants,NY Deli,-37.81453148,144.9610146,,
625,Cafes and Restaurants,The Pressed Lab,-37.81902044,144.9557275,,
626,Cafes and Restaurants,Shuji Sushi,-37.8165272,144.956182,,
627,Cafes and Restaurants,Yabby House,-37.81381086,144.9542621,,
628,Cafes and Restaurants,Pho Flinders Express,-37.81805666,144.964608,,
629,Cafes and Restaurants,Mad Mex,-37.81073331,144.9630189,,
630,Cafes and Restaurants,Nam Loong Seafood Restaurant,-37.81238088,144.9675898,,
631,Cafes and Restaurants,Yak Italian Kitchen & Bar,-37.81543178,144.9687553,,
632,Cafes and Restaurants,Kenny's Bakery Cafe,-37.81402844,144.9606804,,
633,Cafes and Restaurants,The European,-37.8109513,144.9724291,,
634,Cafes and Restaurants,Berto's Bar,-37.81476776,144.9580871,,
635,Cafes and Restaurants,The French Brasserie,-37.81546152,144.9717262,,
636,Cafes and Restaurants,The Lobby Cafe,-37.81546152,144.9717262,,
637,Cafes and Restaurants,Hanaichi,-37.810658,144.9657034,,
638,Cafes and Restaurants,Yang's Braised Chicken Rice,-37.81222127,144.9658727,,
639,Cafes and Restaurants,Cafe Vue,-37.81596878,144.9601101,,
640,Cafes and Restaurants,Cultured Salad,-37.81445406,144.9645323,,
641,Cafes and Restaurants,Mr Q Grab & Go,-37.8146364,144.9570408,,
642,Cafes and Restaurants,Shoya Melbourne,-37.81173945,144.9691148,,
643,Cafes and Restaurants,Max Brenner-Chocolate Bar,-37.81073331,144.9630189,,
644,Cafes and Restaurants,Kappo,-37.81454561,144.9741019,,
645,Cafes and Restaurants,Spaghetti Tree ,-37.81212537,144.9715659,,
646,Cafes and Restaurants,Ohsso,-37.81416355,144.9617562,,
647,Cafes and Restaurants,Muleta's,-37.80861319,144.9581156,,
648,Cafes and Restaurants,La Vita Buona 'The Good Life' Cellar Bar Deli,-37.81584777,144.9674304,,
649,Cafes and Restaurants,Degraves Espresso,-37.81710105,144.9654844,,
650,Cafes and Restaurants,Treviso,-37.81669009,144.9606423,,
651,Cafes and Restaurants,Vons Restaurant & Bar,-37.8130703,144.9611061,,
652,Cafes and Restaurants,Sezar,-37.81350285,144.9689753,,
653,Cafes and Restaurants,Burma Lane,-37.81281453,144.9701092,,
654,Cafes and Restaurants,Massi,-37.81679183,144.9599965,,
655,Cafes and Restaurants,Market Espresso & Trolley Hire,-37.80745984,144.9572395,,
656,Cafes and Restaurants,Mamak ,-37.81220274,144.9614561,,
657,Cafes and Restaurants,Red Spice QV,-37.810658,144.9657034,,
658,Cafes and Restaurants,Riva Cafe Bar,-37.81445406,144.9645323,,
659,Cafes and Restaurants,KFC,-37.81729894,144.9648816,,
660,Cafes and Restaurants,Cafe Segovia,-37.81526825,144.9643901,,
661,Cafes and Restaurants,Dotspot,-37.81626998,144.9540371,,
662,Cafes and Restaurants,Starbucks,-37.81376503,144.9665978,,
663,Cafes and Restaurants,The Little Cafe,-37.81329521,144.9555653,,
664,Cafes and Restaurants,Grasshoppers Feast,-37.81445406,144.9645323,,
665,Cafes and Restaurants,The Truffula Seed Cafe,-37.81505201,144.9739716,,
666,Cafes and Restaurants,Coffee 7,-37.81379622,144.9613937,,
667,Cafes and Restaurants,Marrakech Bar,-37.81638558,144.9600859,,
668,Cafes and Restaurants,No35,-37.81430616,144.9726281,,
669,Cafes and Restaurants,Olio Cucina,-37.81529155,144.9644662,,
670,Cafes and Restaurants,Aunty Frankles,-37.81169847,144.9672984,,
671,Cafes and Restaurants,Tasty Indian Restaurant,-37.81674222,144.9667041,,
672,Cafes and Restaurants,Boney,-37.81284117,144.9713311,,
673,Cafes and Restaurants,Charlie & Co,-37.81245199,144.9638386,,
674,Cafes and Restaurants,Heirloom ,-37.8130107,144.9694638,,
675,Cafes and Restaurants,Pho Flinders,-37.81866105,144.9654659,,
676,Cafes and Restaurants,Mezzo ,-37.8109435,144.97183,,
677,Cafes and Restaurants,Bowert to Williamsburg,-37.81210735,144.9603936,,
678,Cafes and Restaurants,Fukuryu Ramen,-37.8109979,144.9683249,,
679,Cafes and Restaurants,Cafenatics ,-37.81494883,144.9587607,,
680,Cafes and Restaurants,Cafe Euro Food & Wine Bar,-37.81499761,144.9591969,,
681,Cafes and Restaurants,Piccolo,-37.8153588,144.9535531,,
682,Cafes and Restaurants,Jones the Grocer,-37.81245199,144.9638386,,
683,Cafes and Restaurants,Higher Ground,-37.8153588,144.9535531,,
684,Cafes and Restaurants,Movida,-37.81670922,144.9690862,,
685,Cafes and Restaurants,ACMI Cafe & Bar,-37.81784465,144.9699175,,
686,Cafes and Restaurants,Golden Orchid Restaurant,-37.81131219,144.9687601,,
687,Cafes and Restaurants,Crisp Creative Salad,-37.81281453,144.9701092,,
688,Cafes and Restaurants,Shanghai Dumpling Restaurant,-37.8118662,144.9654386,,
689,Cafes and Restaurants,Din Tai Fung,-37.81245199,144.9638386,,
690,Cafes and Restaurants,Ratee Thai,-37.81724878,144.9665517,,
691,Cafes and Restaurants,SMXL,-37.81477885,144.9563672,,
692,Cafes and Restaurants,Cafenatics 367,-37.81728432,144.9624418,,
693,Cafes and Restaurants,Back Pocket Little Lonsdale,-37.8134766,144.9560169,,
694,Cafes and Restaurants,Zhan Beers,-37.81301654,144.9554126,,
695,Cafes and Restaurants,Postal Hall,-37.81350285,144.9689753,,
696,Cafes and Restaurants,Monkey King Bar,-37.81073331,144.9630189,,
697,Cafes and Restaurants,Scugnizzo Ristorante ,-37.81491966,144.9559421,,
698,Cafes and Restaurants,Grossi Florentino,-37.81172969,144.9708473,,
699,Cafes and Restaurants,Ombra,-37.81170263,144.9709443,,
700,Cafes and Restaurants,The Lounge,-37.81230108,144.9647365,,
701,Cafes and Restaurants,Hanaichi,-37.810658,144.9657034,,
702,Cafes and Restaurants,Prime House,-37.81494883,144.9587607,,
703,Cafes and Restaurants,Cafe Excello ,-37.81260039,144.9731836,,
704,Cafes and Restaurants,Joomak Korean Restaurant,-37.80895593,144.9631797,,
705,Cafes and Restaurants,Izakaya Chuji Japanese Restaurant,-37.81098272,144.9676444,,
706,Cafes and Restaurants,Paperboy Kitchen,-37.81158232,144.9602803,,
707,Cafes and Restaurants,Da Hu Peking Duck Restaurant,-37.81199728,144.9674041,,
708,Cafes and Restaurants,G2 Korean BBQ,-37.81161119,144.9616267,,
709,Cafes and Restaurants,Decoy Art House Cafe,-37.80884782,144.968788,,
710,Cafes and Restaurants,Oli & Levi,-37.81491502,144.9629442,,
711,Cafes and Restaurants,Alluvial Restaurant,-37.81853877,144.9581185,,
712,Cafes and Restaurants,Pearson and Murph'y Cafe,-37.80818365,144.9645504,,
713,Cafes and Restaurants,Mr Mason,-37.81767359,144.9568348,,
714,Cafes and Restaurants,Chocolate Arcade,-37.81507697,144.9657774,,
715,Cafes and Restaurants,Mamma Mia,-37.81531863,144.9573923,,
716,Cafes and Restaurants,Blahnik,-37.81554941,144.9632938,,
717,Cafes and Restaurants,Lt Osteria,-37.81531863,144.9573923,,
718,Cafes and Restaurants,Lost Angel Bar & Restaurant ,-37.80814522,144.9710147,,
719,Cafes and Restaurants,Terra Rossa,-37.81542975,144.9713925,,
720,Cafes and Restaurants,Runya's Room,-37.81536587,144.9648999,,
721,Cafes and Restaurants,Zam Zam Restaurant ,-37.81220274,144.9614561,,
722,Cafes and Restaurants,Sacred Alley Espresso Bar,-37.81592157,144.9634979,,
723,Cafes and Restaurants,Koko Black Chocolate,-37.81355886,144.9718392,,
724,Cafes and Restaurants,Lobby Lounge,-37.81584777,144.9674304,,
725,Cafes and Restaurants,Gami Chicken & Beer,-37.81952934,144.957466,,
726,Cafes and Restaurants,Urban Deli SX1,-37.81281453,144.9701092,,
727,Cafes and Restaurants,The Tea Salon,-37.81245199,144.9638386,,
728,Cafes and Restaurants,Elles Naturally,-37.81073331,144.9630189,,
729,Cafes and Restaurants,Cafe Felice,-37.81547268,144.9601886,,
730,Cafes and Restaurants,Black Velvet Galleria,-37.81491502,144.9629442,,
731,Cafes and Restaurants,Hash Specialty Coffee And Roasters,-37.81240787,144.9605306,,
732,Cafes and Restaurants,Dip In Cafe,-37.81514598,144.9618186,,
733,Cafes and Restaurants,Juicy Bao,-37.81186912,144.966942,,
734,Cafes and Restaurants,Brown Sugar Cafe,-37.81528948,144.9642254,,
735,Cafes and Restaurants,Delhi Rocks,-37.81500707,144.9553894,,
736,Cafes and Restaurants,Kedai Satay,-37.8156735,144.9556966,,
737,Cafes and Restaurants,Coffee Exchange,-37.81260039,144.9731836,,
738,Cafes and Restaurants,Corner Lane Cafe,-37.81181165,144.9596748,,
739,Cafes and Restaurants,The Workers Food Room,-37.81299012,144.9555039,,
740,Cafes and Restaurants,Market Lane Cafe,-37.80745984,144.9572395,,
741,Cafes and Restaurants,Cat Cafe Melbourne,-37.81123352,144.9598681,,
742,Cafes and Restaurants,Mappen Ramen Bar,-37.81251216,144.968248,,
743,Cafes and Restaurants,Olio Cucina,-37.81529155,144.9644662,,
744,Cafes and Restaurants,Fourteen On 3,-37.81767359,144.9568348,,
745,Cafes and Restaurants,Belleville,-37.8123299,144.9654266,,
746,Cafes and Restaurants,McDonalds,-37.81782922,144.9644996,,
747,Cafes and Restaurants,Drumtong,-37.81311232,144.9563971,,
748,Cafes and Restaurants,Tahini Lebanese Diner,-37.8146364,144.9570408,,
749,Cafes and Restaurants,Klik Cafe ,-37.81010387,144.9604349,,
750,Cafes and Restaurants,O-Bento,-37.81722704,144.9627888,,
751,Cafes and Restaurants,Hofbrouhaus Restaurant,-37.81175137,144.9694031,,
752,Cafes and Restaurants,Heyday Hong Kong Cafe,-37.81181046,144.9663726,,
753,Cafes and Restaurants,Pizza @ QV,-37.80745984,144.9572395,,
754,Cafes and Restaurants,Lt Osteria,-37.81531863,144.9573923,,
755,Cafes and Restaurants,Cafe Felice,-37.81547268,144.9601886,,
756,Cafes and Restaurants,Takumi Japanese Restaurant,-37.81136083,144.9719781,,
757,Cafes and Restaurants,Red Spice Road,-37.8152325,144.9614687,,
758,Cafes and Restaurants,Thailicious,-37.80752222,144.9681732,,
759,Cafes and Restaurants,Dokidoki Japanese Restaurant,-37.80912871,144.9628186,,
760,Cafes and Restaurants,Eurolane Cafe ,-37.8166033,144.9655966,,
761,Cafes and Restaurants,Tazio Birraria & Pizzeria,-37.81430616,144.9726281,,
762,Cafes and Restaurants,Bingo Wrap,-37.81867544,144.9543505,,
763,Cafes and Restaurants,Shuji Sushi,-37.81946849,144.9586012,,
764,Cafes and Restaurants,Royal Stacks,-37.81753764,144.9583339,,
765,Cafes and Restaurants,Shophouse Kitcken,-37.810658,144.9657034,,
766,Cafes and Restaurants,Wagyu One,-37.81207418,144.969548,,
767,Cafes and Restaurants,Simmer Huang,-37.81076317,144.9640475,,
768,Cafes and Restaurants,Captains of Industry,-37.81354034,144.962548,,
769,Cafes and Restaurants,Chine On Paramount / Chine Express ,-37.81170307,144.9697778,,
770,Cafes and Restaurants,Philippe,-37.81473508,144.9700073,,
771,Cafes and Restaurants,Cafe On Bourke,-37.81137728,144.971689,,
772,Cafes and Restaurants,Zambrero,-37.81236842,144.9607949,,
773,Cafes and Restaurants,Wagaya Japanese Restaurant,-37.8124312,144.9672768,,
774,Cafes and Restaurants,Bond Street Kitchen,-37.81829599,144.9625773,,
775,Cafes and Restaurants,Silhouette's Cafe & Restaurant,-37.81290439,144.955573,,
776,Cafes and Restaurants,Fugazza,-37.81570426,144.9629844,,
777,Cafes and Restaurants,Urban Table Expresso,-37.8091842,144.9707325,,
778,Cafes and Restaurants,Warra Warra,-37.81376503,144.9665978,,
779,Cafes and Restaurants,Charming Spice,-37.81152964,144.9639969,,
780,Cafes and Restaurants,In a Rush,-37.81858017,144.9591221,,
781,Cafes and Restaurants,TGI Fridays Restarant & Bar,-37.81073331,144.9630189,,
782,Cafes and Restaurants,Hibachi Japanese Grill ,-37.81478641,144.955307,,
783,Cafes and Restaurants,Malaysian Laksa House,-37.80856366,144.9602158,,
784,Cafes and Restaurants,Grain Store,-37.81988484,144.9566017,,
785,Cafes and Restaurants,Barista 101,-37.81492031,144.9707498,,
786,Cafes and Restaurants,Cafe Andiamo,-37.81706291,144.9659028,,
787,Cafes and Restaurants,Ways & Means Cafe,-37.80814522,144.9710147,,
788,Cafes and Restaurants,Secret Kitchen,-37.81055707,144.9704962,,
789,Cafes and Restaurants,Pot Lonsdale,-37.8118146,144.9605406,,
790,Cafes and Restaurants,Dex2rose Nitrogen Gelato,-37.81379494,144.9615983,,
791,Cafes and Restaurants,Bullrun,-37.81560645,144.9708344,,
792,Cafes and Restaurants,Salaam Namaste Dosa Hut CBD,-37.81529895,144.9549266,,
793,Cafes and Restaurants,Kri Kri Restaurant,-37.81083595,144.9715059,,
794,Cafes and Restaurants,Cafe Verona,-37.80745984,144.9572395,,
795,Cafes and Restaurants,Pho Nom,-37.81902044,144.9557275,,
796,Cafes and Restaurants,Tribel Cafe,-37.80745984,144.9572395,,
797,Cafes and Restaurants,Degani Bakery Cafe,-37.81200936,144.9611344,,
798,Cafes and Restaurants,China Bar,-37.81111923,144.967037,,
799,Cafes and Restaurants,1000 Pound Bend,-37.81166967,144.9612845,,
800,Cafes and Restaurants,Babbo,-37.8091842,144.9707325,,
801,Cafes and Restaurants,The Quarter,-37.81710105,144.9654844,,
802,Cafes and Restaurants,Chilli India,-37.81073331,144.9630189,,
803,Cafes and Restaurants,Theobroma Chocolate Lounge,-37.81073331,144.9630189,,
804,Cafes and Restaurants,Nando's Bourke Street,-37.81217956,144.9710404,,
805,Cafes and Restaurants,Allegro Restaurant,-37.81584777,144.9674304,,
806,Cafes and Restaurants,Xtraction ,-37.81244731,144.9558855,,
807,Cafes and Restaurants,Cafenatics QV,-37.810658,144.9657034,,
808,Cafes and Restaurants,Thai Culinary,-37.80885861,144.9603439,,
809,Cafes and Restaurants,By Korea,-37.8100143,144.9608495,,
810,Cafes and Restaurants,Nando's,-37.8103651,144.9637506,,
811,Cafes and Restaurants,Sixpence Cafe,-37.81571393,144.9561073,,
812,Cafes and Restaurants,Nashi,-37.81281453,144.9701092,,
813,Cafes and Restaurants,Cafenatics QV,-37.810658,144.9657034,,
814,Cafes and Restaurants,Sichuan Dining Room,-37.80728963,144.9620907,,
815,Cafes and Restaurants,Becco,-37.81143018,144.9710142,,
816,Cafes and Restaurants,1932 Cafe & Restaurant,-37.81528474,144.9661258,,
817,Cafes and Restaurants,Mamasita,-37.81377997,144.9734622,,
818,Cafes and Restaurants,Mr Fusion,-37.81695942,144.956774,,
819,Cafes and Restaurants,Little Flinders,-37.81430616,144.9726281,,
820,Cafes and Restaurants,Melbourne Wok,-37.81247257,144.968386,,
821,Cafes and Restaurants,Laurent Boulangerie Patisserie,-37.81531863,144.9573923,,
822,Cafes and Restaurants,Cafe Excello ,-37.81260039,144.9731836,,
823,Cafes and Restaurants,Little Flinders,-37.81430616,144.9726281,,
824,Cafes and Restaurants,Red Silks Restaurant & Bar,-37.8124312,144.9672768,,
825,Cafes and Restaurants,International Diethnes Cakes,-37.81118708,144.9668486,,
826,Cafes and Restaurants,Embla,-37.81342961,144.9687154,,
827,Cafes and Restaurants,Dinkum Pies,-37.81528948,144.9642254,,
828,Cafes and Restaurants,In a Rush  ,-37.81784465,144.9699175,,
829,Cafes and Restaurants,Darac Grill & Bar,-37.8090975,144.9620743,,
830,Cafes and Restaurants,Gami At Healeys - Chicken & Beer,-37.8134766,144.9560169,,
831,Cafes and Restaurants,Henry & The Fox,-37.81753383,144.9574732,,
832,Cafes and Restaurants,Tsindos Greek Restaurant,-37.81128456,144.9665765,,
833,Cafes and Restaurants,The Tuck Shop ,-37.81494883,144.9587607,,
834,Cafes and Restaurants,The Fair Trader Cafe,-37.81546152,144.9717262,,
835,Cafes and Restaurants,In A Rush,-37.81719649,144.9577989,,
836,Cafes and Restaurants,Grasshoppers Feast,-37.81445406,144.9645323,,
837,Cafes and Restaurants,Dumplings on Russell,-37.81020096,144.9671989,,
838,Cafes and Restaurants,Grill Steak Seafood,-37.81318202,144.9611673,,
839,Cafes and Restaurants,The Crux & Co Patisseries,-37.81290511,144.9727065,,
840,Cafes and Restaurants,Movenpick Icecream,-37.810658,144.9657034,,
841,Cafes and Restaurants,Fat Oma,-37.81278915,144.9656117,,
842,Cafes and Restaurants,Cafe Chinotto,-37.81784465,144.9699175,,
843,Cafes and Restaurants,Chilangos,-37.81531863,144.9573923,,
844,Cafes and Restaurants,Careers Cafe,-37.81673488,144.9681433,,
845,Cafes and Restaurants,City BBQ Chinese Restaurant,-37.81186912,144.966942,,
846,Cafes and Restaurants,The Hardware Societe,-37.81194755,144.9607032,,
847,Cafes and Restaurants,Northbanc Cafe,-37.82088351,144.9572299,,
848,Cafes and Restaurants,Sushi Sushi,-37.81073331,144.9630189,,
849,Cafes and Restaurants,Purple Peanuts Japanese Cafe,-37.81867544,144.9543505,,
850,Cafes and Restaurants,The Press Club ,-37.81546181,144.9727209,,
851,Cafes and Restaurants,Sempre Pizza & Calzone,-37.8119837,144.9719053,,
852,Cafes and Restaurants,Suda,-37.8134766,144.9560169,,
853,Cafes and Restaurants,Ca De Vin,-37.81360425,144.9632879,,
854,Cafes and Restaurants,Arintji,-37.81784465,144.9699175,,
855,Cafes and Restaurants,Spin Coffee,-37.81636534,144.9578132,,
856,Cafes and Restaurants,Oriental Spoon,-37.80994879,144.961747,,
857,Cafes and Restaurants,Westlake Restaurant,-37.812194,144.9669548,,
858,Cafes and Restaurants,Cafenatics ,-37.81494883,144.9587607,,
859,Cafes and Restaurants,Bullrun,-37.81560645,144.9708344,,
860,Cafes and Restaurants,Gozleme Cafe,-37.80745984,144.9572395,,
861,Cafes and Restaurants,Hochi Mama Kitchen,-37.81131159,144.9713242,,
862,Cafes and Restaurants,Izakaya Chuji Japanese Restaurant,-37.81098272,144.9676444,,
863,Cafes and Restaurants,Udon Yasan,-37.81267583,144.9676888,,
864,Cafes and Restaurants,Brioche by Philip,-37.81636534,144.9578132,,
865,Cafes and Restaurants,Sam Sam,-37.81289706,144.9650387,,
866,Cafes and Restaurants,Hako,-37.81726468,144.9636828,,
867,Cafes and Restaurants,Bourke and Willis,-37.81531863,144.9573923,,
868,Cafes and Restaurants,Cafe Lavita On William ,-37.81492637,144.9582309,,
869,Cafes and Restaurants,Noodle Wizard,-37.81246709,144.9676479,,
870,Cafes and Restaurants,Morgans at 401,-37.81739636,144.9612229,,
871,Cafes and Restaurants,Entrecote City,-37.8139675,144.9702813,,
872,Cafes and Restaurants,Ohsso,-37.81416355,144.9617562,,
873,Cafes and Restaurants,Bluebag,-37.8091842,144.9707325,,
874,Cafes and Restaurants,Satu Produk Durian,-37.81259409,144.9668768,,
875,Cafes and Restaurants,Don Don Japanese Restaurant,-37.81073331,144.9630189,,
876,Cafes and Restaurants,This Side of Paradise,-37.81592157,144.9634979,,
877,Cafes and Restaurants,Queen Street Rescue,-37.81428585,144.9599687,,
878,Cafes and Restaurants,Cocoa Bean Cafe,-37.81595642,144.9589392,,
879,Cafes and Restaurants,Sarawak Kitchen,-37.807983,144.9599695,,
880,Cafes and Restaurants,The Mug House,-37.81703239,144.9597623,,
881,Cafes and Restaurants,Palsaik,-37.81206119,144.9685359,,
882,Cafes and Restaurants,Pomodoro Sardo,-37.81053336,144.9691194,,
883,Cafes and Restaurants,Sushi Ten,-37.81724878,144.9665517,,
884,Cafes and Restaurants,Paris End Cafe,-37.81330535,144.9728919,,
885,Cafes and Restaurants,Flavour Town Hot Pot,-37.81265943,144.967177,,
886,Cafes and Restaurants,Lee's Chinese Gourmet,-37.81349786,144.9548222,,
887,Cafes and Restaurants,In a Rush Espresso,-37.81560573,144.9617411,,
888,Cafes and Restaurants,Larder Section,-37.8138513,144.9612043,,
889,Cafes and Restaurants,Druids Cafe,-37.80895593,144.9631797,,
890,Cafes and Restaurants,Thr1ve,-37.81430616,144.9726281,,
891,Cafes and Restaurants,Locanda Italian Steakhouse,-37.81121462,144.9706454,,
892,Cafes and Restaurants,OPPA (Korean Kitchen),-37.81190136,144.964551,,
893,Cafes and Restaurants,No 8 Exhibition Cafe,-37.81546181,144.9727209,,
894,Cafes and Restaurants,Naughty Nuri's Warung and Grill ,-37.81073331,144.9630189,,
895,Cafes and Restaurants,Arbory Bar and Eatery,-37.81866105,144.9654659,,
896,Cafes and Restaurants,Mr Tulk Cafe,-37.80976881,144.965306,,
897,Cafes and Restaurants,The Journal Canteen/Oskars Kitchen,-37.81706291,144.9659028,,
898,Cafes and Restaurants,Simply Spanish,-37.80745984,144.9572395,,
899,Cafes and Restaurants,Red Pepper Indian Restaurant,-37.81126209,144.9724607,,
900,Cafes and Restaurants,Gloria Jeans,-37.80977165,144.9614515,,
901,Cafes and Restaurants,Stalactites Restaurant,-37.81111923,144.967037,,
902,Cafes and Restaurants,N Lee Bakery,-37.81679183,144.9599965,,
903,Cafes and Restaurants,Supergrind Cafe,-37.80990475,144.9718354,,
904,Cafes and Restaurants,Bluestones 520 Cafe,-37.81527349,144.9583865,,
905,Cafes and Restaurants,Alice Nevins,-37.81724878,144.9665517,,
906,Cafes and Restaurants,Tempo Bar & Cafe,-37.81630648,144.9589224,,
907,Cafes and Restaurants,Pei Modern,-37.81430616,144.9726281,,
908,Cafes and Restaurants,Chokolait,-37.81245199,144.9638386,,
909,Cafes and Restaurants,Crystal Jade Restaurant,-37.81158809,144.9678632,,
910,Cafes and Restaurants,Cafe Victoria,-37.80745984,144.9572395,,
911,Cafes and Restaurants,Black Rice,-37.81902044,144.9557275,,
912,Cafes and Restaurants,Terrace Deli,-37.81660734,144.95955,,
913,Cafes and Restaurants,Angliss Restaurant ,-37.81327283,144.9528962,,
914,Cafes and Restaurants,Harry's At Stamford ,-37.8136886,144.9697676,,
915,Cafes and Restaurants,DANSK Restaurant,-37.81392392,144.9597229,,
916,Cafes and Restaurants,McDonald's,-37.81342593,144.9727083,,
917,Cafes and Restaurants,Meatball & Wine Bar,-37.81573536,144.9701585,,
918,Cafes and Restaurants,Rice Paper Vietnamese Restaurant,-37.81230108,144.9647365,,
919,Cafes and Restaurants,Bergerac,-37.81439357,144.9562135,,
920,Cafes and Restaurants,Cafe Sonex ,-37.81261513,144.9542745,,
921,Cafes and Restaurants,Fomo Thai,-37.81296416,144.9684972,,
922,Cafes and Restaurants,Malaysian Laksa House,-37.80856366,144.9602158,,
923,Cafes and Restaurants,Stassi Cafe,-37.81024912,144.9592377,,
924,Cafes and Restaurants,French Saloon,-37.81354346,144.9613283,,
925,Cafes and Restaurants,Gyoza Gyoza & Momo Shabu Shabu,-37.81158808,144.9690101,,
926,Cafes and Restaurants,Nirankar Restaurant ,-37.81429326,144.9607699,,
927,Cafes and Restaurants,Nihonshu Shochu & Sake Bar,-37.81098272,144.9676444,,
928,Cafes and Restaurants,D House Cafe,-37.81088539,144.964105,,
929,Cafes and Restaurants,Melbourne Mahn Doo,-37.81145082,144.9586601,,
930,Cafes and Restaurants,Angliss Bistro,-37.81327283,144.9528962,,
931,Cafes and Restaurants,Wing Loong Chinese Restaurant,-37.80671508,144.9601828,,
932,Cafes and Restaurants,Great Space Cafe,-37.81430616,144.9726281,,
933,Cafes and Restaurants,Gloria Jeans,-37.810658,144.9657034,,
934,Cafes and Restaurants,Little Ramen Bar,-37.81321386,144.9622831,,
935,Cafes and Restaurants,McDonalds,-37.81723918,144.9669316,,
936,Cafes and Restaurants,Gekkazan,-37.81360425,144.9632879,,
937,Cafes and Restaurants,Gypsy & Pig,-37.81187439,144.9603411,,
938,Cafes and Restaurants,King Curry,-37.81992762,144.9576378,,
939,Cafes and Restaurants,Pizza @ QV,-37.80745984,144.9572395,,
940,Cafes and Restaurants,Hofbrauhaus Restaurant ,-37.81160745,144.9693353,,
941,Cafes and Restaurants,Klatch,-37.81728432,144.9624418,,
942,Cafes and Restaurants,Three Drops Espresso,-37.81584476,144.9663304,,
943,Cafes and Restaurants,Oree,-37.81452036,144.9599857,,
944,Cafes and Restaurants,Rice Paper Vietnamese Restaurant,-37.81230108,144.9647365,,
945,Cafes and Restaurants,Grill'd (QV),-37.810658,144.9657034,,
946,Cafes and Restaurants,Bornga,-37.81143223,144.9643593,,
947,Cafes and Restaurants,Russells Old Corner Shop Luncheon Room,-37.8125542,144.9542466,,
948,Cafes and Restaurants,Dumpling King,-37.81281453,144.9701092,,
949,Cafes and Restaurants,CJ Lunchbar ,-37.81187439,144.9603411,,
950,Cafes and Restaurants,Thailicious,-37.80752222,144.9681732,,
951,Cafes and Restaurants,Yamato Japanese Restaurant,-37.81081665,144.9681529,,
952,Cafes and Restaurants,In A Rush,-37.81352285,144.9604697,,
953,Cafes and Restaurants,Chokolait,-37.81488174,144.9640121,,
954,Cafes and Restaurants,Grill Steak Seafood,-37.8130703,144.9611061,,
955,Cafes and Restaurants,Nando's Melbourne Central,-37.81073331,144.9630189,,
956,Cafes and Restaurants,Chick-In,-37.81867544,144.9543505,,
957,Cafes and Restaurants,Sunny Boy Cafe,-37.81703239,144.9597623,,
958,Cafes and Restaurants,Market Lane Coffee,-37.81314231,144.9732575,,
959,Cafes and Restaurants,Laksa Bar,-37.80913993,144.9684463,,
960,Cafes and Restaurants,Kenny's Bakery Cafe,-37.81402844,144.9606804,,
961,Cafes and Restaurants,Sweetie And Moustache Dessert Lounge,-37.81169847,144.9672984,,
962,Cafes and Restaurants,The Groove Train,-37.81629382,144.9617186,,
963,Cafes and Restaurants,Elements Catering (Kiosk),-37.81398457,144.9693797,,
964,Cafes and Restaurants,Squisito Bar,-37.810658,144.9657034,,
965,Cafes and Restaurants,Oli Levi,-37.81302823,144.9692543,,
966,Cafes and Restaurants,Sud,-37.81514931,144.9548584,,
967,Cafes and Restaurants,Club Sandwich on Collins,-37.81817724,144.9589237,,
968,Cafes and Restaurants,Fratelli Fresh,-37.81401267,144.9699104,,
969,Cafes and Restaurants,KFC,-37.81688806,144.9667724,,
970,Cafes and Restaurants,Burger Project St. Collins Lane,-37.81536587,144.9648999,,
971,Cafes and Restaurants,Bamboo House,-37.81101377,144.9711092,,
972,Cafes and Restaurants,Grain Store,-37.81988484,144.9566017,,
973,Cafes and Restaurants,Guhng ,-37.81534187,144.961621,,
974,Cafes and Restaurants,Stalactites Restaurant,-37.81111923,144.967037,,
975,Cafes and Restaurants,Punch Lane Wine Bar/Restaurant,-37.81092017,144.971363,,
976,Cafes and Restaurants,Moo Moo Pho,-37.81212877,144.9617626,,
977,Cafes and Restaurants,In a Rush Espresso,-37.81560573,144.9617411,,
978,Cafes and Restaurants,Schnitz,-37.81366344,144.9626049,,
979,Cafes and Restaurants,Josies Food Bar,-37.80745984,144.9572395,,
980,Cafes and Restaurants,Shophouse Kitcken,-37.810658,144.9657034,,
981,Cafes and Restaurants,McDonald's Bourke St West,-37.81416355,144.9617562,,
982,Cafes and Restaurants,Golden Delicious,-37.81128986,144.9699123,,
983,Cafes and Restaurants,Gingerboy,-37.81125144,144.9709314,,
984,Cafes and Restaurants,Degraves Espresso,-37.81710105,144.9654844,,
985,Cafes and Restaurants,Rosa's Canteen,-37.81494883,144.9587607,,
986,Cafes and Restaurants,Higher Ground,-37.8153588,144.9535531,,
987,Cafes and Restaurants,Sarawak Kitchen,-37.807983,144.9599695,,
988,Cafes and Restaurants,Mister Close,-37.81296443,144.9658365,,
989,Cafes and Restaurants,Kasskass,-37.81995155,144.9579912,,
990,Cafes and Restaurants,Toby's Estate Coffee,-37.81775826,144.963491,,
991,Cafes and Restaurants,Caboose Canteen,-37.81584777,144.9674304,,
992,Cafes and Restaurants,Nelayan,-37.81201046,144.9646021,,
993,Cafes and Restaurants,Mamma's Boy,-37.81260039,144.9731836,,
994,Cafes and Restaurants,Claypots Barbarossa,-37.81303978,144.9606809,,
995,Cafes and Restaurants,Nashi,-37.81531863,144.9573923,,
996,Cafes and Restaurants,Nando's,-37.81365679,144.9609004,,
997,Cafes and Restaurants,Mabrown Curry House,-37.81281453,144.9701092,,
998,Cafes and Restaurants,Taxi Kitchen,-37.81784465,144.9699175,,
999,Cafes and Restaurants,Cafe Insieme,-37.81473293,144.9643486,,
1000,Cafes and Restaurants,The Common,-37.81550891,144.9567557,,
1001,Cafes and Restaurants,CBD Bakery,-37.81506553,144.9594641,,
1002,Cafes and Restaurants,China Chilli,-37.81259409,144.9668768,,
1003,Cafes and Restaurants,Roll'D RMIT,-37.80826292,144.9626932,,
1004,Cafes and Restaurants,Sensory Lab,-37.81436987,144.9648958,,
1005,Cafes and Restaurants,Olivino @ Urban Workshop ,-37.8091842,144.9707325,,
1006,Cafes and Restaurants,Max Bar & Restaurant,-37.81339488,144.9612623,,
1007,Cafes and Restaurants,B & B' Guette Cafe,-37.80879339,144.9687626,,
1008,Cafes and Restaurants,ABC Cafe,-37.81022045,144.958212,,
1009,Cafes and Restaurants,Aix Cafe Creperie Salon,-37.8166033,144.9655966,,
1010,Cafes and Restaurants,Crazy Wing,-37.81229698,144.9675488,,
1011,Cafes and Restaurants,Sake Jr,-37.81636534,144.9578132,,
1012,Cafes and Restaurants,Pei Modern,-37.81430616,144.9726281,,
1013,Cafes and Restaurants,Kantina Kartel,-37.81753383,144.9574732,,
1014,Cafes and Restaurants,Queen Street Rescue,-37.81428585,144.9599687,,
1015,Cafes and Restaurants,8 Bit,-37.8125239,144.9648395,,
1016,Cafes and Restaurants,Han Guuk Guan Korean Restaurant,-37.8075865,144.9679821,,
1017,Cafes and Restaurants,Etto St James,-37.81636534,144.9578132,,
1018,Cafes and Restaurants,Northeast China Family,-37.81719967,144.9638971,,
1019,Cafes and Restaurants,Speck Cafe,-37.81355361,144.9597543,,
1020,Cafes and Restaurants,Laneway Cafe,-37.81946849,144.9586012,,
1021,Cafes and Restaurants,Bamboo Village BBQ,-37.81129519,144.967115,,
1022,Cafes and Restaurants,Il Nostro Posto,-37.81328955,144.961215,,
1023,Cafes and Restaurants,Cafe Giraffe,-37.81151662,144.960506,,
1024,Cafes and Restaurants,L'Incontro,-37.81430553,144.9662921,,
1025,Cafes and Restaurants,Squisito Bar,-37.810658,144.9657034,,
1026,Cafes and Restaurants,Pilgrim,-37.81865919,144.9689349,,
1027,Cafes and Restaurants,Oli & Levi,-37.81491502,144.9629442,,
1028,Cafes and Restaurants,Little Chef,-37.81071591,144.9571621,,
1029,Cafes and Restaurants,Riverland Bar,-37.81865919,144.9689349,,
1030,Cafes and Restaurants,Dare 1,-37.81158232,144.9602803,,
1031,Cafes and Restaurants,Kinfolk Cafe,-37.81721781,144.9541004,,
1032,Cafes and Restaurants,Don Too,-37.81181165,144.9596748,,
1033,Cafes and Restaurants,Henrietta's Chicken Shop,-37.81722704,144.9627888,,
1034,Cafes and Restaurants,Pho Nom,-37.81902044,144.9557275,,
1035,Cafes and Restaurants,Cafe Shots Espresso Bar,-37.81514512,144.9722399,,
1036,Cafes and Restaurants,Taketori Fusion Japanese,-37.81488684,144.9547419,,
1037,Cafes and Restaurants,Gyoza Douraku,-37.81280567,144.9689721,,
1038,Cafes and Restaurants,The Apartment Restaurant Club Lounge,-37.81403196,144.9610348,,
1039,Cafes and Restaurants,B3 Cafe,-37.81937993,144.957712,,
1040,Cafes and Restaurants,Kirk's Wine Bar,-37.81354346,144.9613283,,
1041,Cafes and Restaurants,Papparich,-37.810658,144.9657034,,
1042,Cafes and Restaurants,Ta-Ta House,-37.81225906,144.9675307,,
1043,Cafes and Restaurants,Vanilla Bean,-37.80907468,144.9688949,,
1044,Cafes and Restaurants,I Love Dumplings,-37.80914342,144.9599969,,
1045,Cafes and Restaurants,The Pancake Parlour,-37.8142367,144.9652357,,
1046,Cafes and Restaurants,San Paolo Solarino,-37.81490375,144.9653693,,
1047,Cafes and Restaurants,Stassi Cafe,-37.81024912,144.9592377,,
1048,Cafes and Restaurants,Nori Nori,-37.81585501,144.9624392,,
1049,Cafes and Restaurants,Treviso,-37.81669009,144.9606423,,
1050,Cafes and Restaurants,Shuji Sushi,-37.8091842,144.9707325,,
1051,Cafes and Restaurants,Touche Hombre,-37.81158031,144.9655481,,
1052,Cafes and Restaurants,The Firm Espresso Bar,-37.8130525,144.9583529,,
1053,Cafes and Restaurants,Vue De Monde,-37.8186626,144.957551,,
1054,Cafes and Restaurants,The Moat Bar & Cafe,-37.80976881,144.965306,,
1055,Cafes and Restaurants,Cafe Lavita On William ,-37.81492637,144.9582309,,
1056,Cafes and Restaurants,Crisp Creative Salad,-37.81281453,144.9701092,,
1057,Cafes and Restaurants,Pellegrinis Espresso Bar,-37.81165009,144.9711634,,
1058,Cafes and Restaurants,L'Incontro,-37.81430553,144.9662921,,
1059,Cafes and Restaurants,Babbo,-37.8091842,144.9707325,,
1060,Cafes and Restaurants,Shanghai Master Dumpling,-37.81608475,144.95526,,
1061,Cafes and Restaurants,Lua Bakery,-37.81365662,144.9564217,,
1062,Cafes and Restaurants,Laneway Cafe,-37.81946849,144.9586012,,
1063,Cafes and Restaurants,Rare Steakhouse,-37.81309819,144.9716953,,
1064,Cafes and Restaurants,A25,-37.81303978,144.9606809,,
1065,Cafes and Restaurants,Sushi Sushi,-37.8141284,144.9662156,,
1066,Cafes and Restaurants,Taco Bill Mexican Restaurant,-37.81298798,144.9684168,,
1067,Cafes and Restaurants,Snack Delight,-37.81771534,144.9644466,,
1068,Cafes and Restaurants,Mediterranean Deli,-37.81358646,144.9707087,,
1069,Cafes and Restaurants,30ml Coffee,-37.81507697,144.9657774,,
1070,Cafes and Restaurants,#Coffee,-37.81805379,144.964041,,
1071,Cafes and Restaurants,Hochi Mama Kitchen,-37.81131159,144.9713242,,
1072,Cafes and Restaurants,Mezzo ,-37.8109435,144.97183,,
1073,Cafes and Restaurants,Bistro Vue,-37.81596878,144.9601101,,
1074,Cafes and Restaurants,Blue Bag,-37.81501535,144.9715746,,
1075,Cafes and Restaurants,Pastuso,-37.81600001,144.9711544,,
1076,Cafes and Restaurants,French Fix,-37.81355361,144.9597543,,
1077,Cafes and Restaurants,Henry & The Fox,-37.81753383,144.9574732,,
1078,Cafes and Restaurants,Tina's Noodle Kitchen,-37.81244693,144.9648043,,
1079,Cafes and Restaurants,The European,-37.8109513,144.9724291,,
1080,Cafes and Restaurants,International Diethnes Cakes,-37.81118708,144.9668486,,
1081,Cafes and Restaurants,The J Walk Cafe,-37.81012652,144.967574,,
1082,Cafes and Restaurants,Shuji Sushi,-37.80864972,144.9684259,,
1083,Cafes and Restaurants,Touche Hombre,-37.81158031,144.9655481,,
1084,Cafes and Restaurants,Dosirock,-37.81349786,144.9548222,,
1085,Cafes and Restaurants,Om Vegetarian,-37.81507697,144.9657774,,
1086,Cafes and Restaurants,Om Vegetarian,-37.81729894,144.9648816,,
1087,Cafes and Restaurants,Melbourne Mahn Doo,-37.81145082,144.9586601,,
1088,Cafes and Restaurants,Sacred Alley Espresso Bar,-37.81592157,144.9634979,,
1089,Cafes and Restaurants,Sichuan Dining Room,-37.8124312,144.9672768,,
1090,Cafes and Restaurants,Dessert Kitchen,-37.81146308,144.9693399,,
1091,Cafes and Restaurants,Laissez-Faire,-37.81492031,144.9707498,,
1092,Cafes and Restaurants,Melina on the Rooftop,-37.8105674,144.9673697,,
1093,Cafes and Restaurants,A Hereford Beefstouw,-37.81593915,144.9713707,,
1094,Cafes and Restaurants,Oh Deer,-37.81376503,144.9665978,,
1095,Cafes and Restaurants,Bluestone Restaurant / Bluestone Downstairs,-37.81789895,144.9628549,,
1096,Cafes and Restaurants,Michelangelo,-37.81379647,144.9598741,,
1097,Cafes and Restaurants,Collins Kitchen,-37.81516811,144.9698467,,
1098,Cafes and Restaurants,Dumpling To Go,-37.81058325,144.9695404,,
1099,Cafes and Restaurants,Mad Mex,-37.81281453,144.9701092,,
1100,Cafes and Restaurants,KFC,-37.81323955,144.9675263,,
1101,Cafes and Restaurants,Embla,-37.81342961,144.9687154,,
1102,Cafes and Restaurants,Wing Loong Chinese Restaurant,-37.80671508,144.9601828,,
1103,Cafes and Restaurants,Piccolo Me,-37.81298088,144.9586138,,
1104,Cafes and Restaurants,Chokolait,-37.81488174,144.9640121,,
1105,Cafes and Restaurants,Nando's Russell Street,-37.81251216,144.968248,,
1106,Cafes and Restaurants,Laurent,-37.81430616,144.9726281,,
1107,Cafes and Restaurants,Kenny's Bakery Cafe,-37.81005686,144.9707149,,
1108,Cafes and Restaurants,Xpressomondo,-37.81710105,144.9654844,,
1109,Cafes and Restaurants,The Atrium on 35,-37.81430616,144.9726281,,
1110,Cafes and Restaurants,Corner Lane Cafe,-37.81181165,144.9596748,,
1111,Cafes and Restaurants,In A Rush ,-37.81677365,144.9555529,,
1112,Cafes and Restaurants,Neapoli Wine Bar,-37.81355434,144.9674275,,
1113,Cafes and Restaurants,Self Preservation,-37.81166963,144.9710755,,
1114,Cafes and Restaurants,Meshiya Japanese Restaurant,-37.810658,144.9657034,,
1115,Cafes and Restaurants,Earl Canteen,-37.81902044,144.9557275,,
1116,Cafes and Restaurants,Nashi,-37.81531863,144.9573923,,
1117,Cafes and Restaurants,Nando's - Bourke Place,-37.81571393,144.9561073,,
1118,Cafes and Restaurants,Bokchoy Tang,-37.81784465,144.9699175,,
1119,Cafes and Restaurants,Starbucks ,-37.8112271,144.9642637,,
1120,Cafes and Restaurants,Little Brother Cafe,-37.8162783,144.960452,,
1121,Cafes and Restaurants,Ciao Pizza Napoli Restaurant,-37.81359799,144.9610735,,
1122,Cafes and Restaurants,Spudbar Collins Street 567,-37.81902044,144.9557275,,
1123,Cafes and Restaurants,Pretty Mama,-37.8153588,144.9535531,,
1124,Cafes and Restaurants,Beer Wine and Calzone,-37.81124428,144.9565783,,
1125,Cafes and Restaurants,Marroo,-37.81556194,144.9615306,,
1126,Cafes and Restaurants,Cafe Insieme,-37.81473293,144.9643486,,
1127,Cafes and Restaurants,Sushi Hotaru,-37.8124312,144.9672768,,
1128,Cafes and Restaurants,II Tempo Bar,-37.81752037,144.9659973,,
1129,Cafes and Restaurants,Gloria Jeans Level 2,-37.81073331,144.9630189,,
1130,Cafes and Restaurants,Ikyu Sushi,-37.81494883,144.9587607,,
1131,Cafes and Restaurants,Bistrot D'Orsay,-37.81485585,144.9672778,,
1132,Cafes and Restaurants,Miss Chu,-37.80893166,144.9688284,,
1133,Cafes and Restaurants,Da Rin,-37.81294598,144.9685632,,
1134,Cafes and Restaurants,Healthy Habits Cafe,-37.81281453,144.9701092,,
1135,Cafes and Restaurants,Lost Heaven,-37.81259409,144.9668768,,
1136,Cafes and Restaurants,Indian Delights On Russell,-37.80966479,144.966972,,
1137,Cafes and Restaurants,McDonalds,-37.80735265,144.9595526,,
1138,Cafes and Restaurants,Hungry Jack's,-37.80945732,144.9634198,,
1139,Cafes and Restaurants,Indi Hots Restaurant,-37.81170899,144.9700956,,
1140,Cafes and Restaurants,Old Crystal Jade Steamboat,-37.81172075,144.9670449,,
1141,Cafes and Restaurants,McDonalds,-37.80735265,144.9595526,,
1142,Cafes and Restaurants,Frozen by a Thousand Blessings,-37.81073331,144.9630189,,
1143,Cafes and Restaurants,Shuji Sushi,-37.8134766,144.9560169,,
1144,Cafes and Restaurants,Jasper Kitchen ,-37.80750344,144.9596331,,
1145,Cafes and Restaurants,The Bank On Collins,-37.81666775,144.9610454,,
1146,Cafes and Restaurants,Campari House,-37.81409153,144.9613142,,
1147,Cafes and Restaurants,By Korea,-37.81213633,144.965603,,
1148,Cafes and Restaurants,Goody's Burger House,-37.8105674,144.9673697,,
1149,Cafes and Restaurants,Trunk,-37.80938323,144.9689066,,
1150,Cafes and Restaurants,Simply Spanish,-37.80745984,144.9572395,,
1151,Cafes and Restaurants,Gangnam Pocha,-37.81372352,144.9549294,,
1152,Cafes and Restaurants,Melbourne Vietnam Noodle House,-37.81221437,144.9646962,,
1153,Cafes and Restaurants,In A Rush,-37.81352285,144.9604697,,
1154,Cafes and Restaurants,Muleta's,-37.80861319,144.9581156,,
1155,Cafes and Restaurants,Market Lane Cafe,-37.80745984,144.9572395,,
1156,Cafes and Restaurants,The Terrace Restaurant Bar & Grill ,-37.8078604,144.9680267,,
1157,Cafes and Restaurants,Subway,-37.81044353,144.9694844,,
1158,Cafes and Restaurants,Earl Canteen,-37.810658,144.9657034,,
1159,Cafes and Restaurants,Syracuse Restaurant - Bar ,-37.81638558,144.9600859,,
1160,Cafes and Restaurants,Buddabah,-37.81902044,144.9557275,,
1161,Cafes and Restaurants,Ume Sushi House,-37.81377588,144.961463,,
1162,Cafes and Restaurants,Terrace Deli,-37.81660734,144.95955,,
1163,Cafes and Restaurants,Mad Mex Flinders Lane,-37.81741878,144.9643316,,
1164,Cafes and Restaurants,Golden Orchid Restaurant,-37.81131219,144.9687601,,
1165,Cafes and Restaurants,Shandong Mama Dumplings,-37.8124312,144.9672768,,
1166,Cafes and Restaurants,@T Ease,-37.8112684,144.9666305,,
1167,Cafes and Restaurants,Sushi Monger ,-37.81445406,144.9645323,,
1168,Cafes and Restaurants,Fugazza,-37.81570426,144.9629844,,
1169,Cafes and Restaurants,Pho 24,-37.8153588,144.9535531,,
1170,Cafes and Restaurants,Donoghue's ,-37.8134766,144.9560169,,
1171,Cafes and Restaurants,The Grand Trailer Park Taverna,-37.812234,144.9709029,,
1172,Cafes and Restaurants,Yamato Japanese Restaurant,-37.81067091,144.9695849,,
1173,Cafes and Restaurants,Mao Please,-37.81204418,144.9662182,,
1174,Cafes and Restaurants,Kaefei,-37.81270785,144.9564474,,
1175,Cafes and Restaurants,Brown Sugar Cafe,-37.81528948,144.9642254,,
1176,Cafes and Restaurants,China Spice,-37.81131629,144.9609484,,
1177,Cafes and Restaurants,Water Flame ,-37.81181165,144.9596748,,
1178,Cafes and Restaurants,Oriental Tea House,-37.81551671,144.9620207,,
1179,Cafes and Restaurants,Cafe Vicolino,-37.81664468,144.9654744,,
1180,Cafes and Restaurants,Bowert to Williamsburg,-37.81210735,144.9603936,,
1181,Cafes and Restaurants,Hudson's Coffee,-37.81012699,144.9720594,,
1182,Cafes and Restaurants,Mr Q Grab & Go,-37.8146364,144.9570408,,
1183,Cafes and Restaurants,Gue on Brights Place,-37.81290439,144.955573,,
1184,Cafes and Restaurants,D House Cafe,-37.81088539,144.964105,,
1185,Cafes and Restaurants,Grill Steak Seafood,-37.8130703,144.9611061,,
1186,Cafes and Restaurants,Merlo Coffee,-37.80745984,144.9572395,,
1187,Cafes and Restaurants,Shuji Sushi,-37.8119837,144.9719053,,
1188,Cafes and Restaurants,Ba'get,-37.81316722,144.9685948,,
1189,Cafes and Restaurants,Lanes Edge Cafe,-37.81193572,144.9720472,,
1190,Cafes and Restaurants,Nandos Northbank,-37.82099397,144.9565185,,
1191,Cafes and Restaurants,Grill'd (QV),-37.810658,144.9657034,,
1192,Cafes and Restaurants,Max Brenner-Chocolate Bar,-37.81073331,144.9630189,,
1193,Cafes and Restaurants,Operator 25,-37.81071591,144.9571621,,
1194,Cafes and Restaurants,Roll'd,-37.8142907,144.9614053,,
1195,Cafes and Restaurants,Pallet Espresso,-37.81867544,144.9543505,,
1196,Cafes and Restaurants,Rock the Wok,-37.81531863,144.9573923,,
1197,Cafes and Restaurants,Tim Ho Wan,-37.81259409,144.9668768,,
1198,Cafes and Restaurants,Rare Steakhouse King Street,-37.81918367,144.9573222,,
1199,Cafes and Restaurants,San Telmo Restaurant,-37.81221617,144.972451,,
1200,Cafes and Restaurants,Mistress Bourke,-37.81571393,144.9561073,,
1201,Cafes and Restaurants,Bonnie Coffee Co,-37.81584246,144.9720412,,
1202,Cafes and Restaurants,Nando's,-37.81670922,144.9690862,,
1203,Cafes and Restaurants,The Melbourne Supper Club,-37.8109513,144.9724291,,
1204,Cafes and Restaurants,Raan Kan Eang,-37.80911597,144.9604891,,
1205,Cafes and Restaurants,Caterina's Cucina E Bar,-37.81355361,144.9597543,,
1206,Cafes and Restaurants,Eliana Lulu,-37.81664468,144.9654744,,
1207,Cafes and Restaurants,Bergerac,-37.81439357,144.9562135,,
1208,Cafes and Restaurants,Cafe Bisqui ,-37.81627651,144.970543,,
1209,Cafes and Restaurants,Krimper,-37.81115719,144.9601274,,
1210,Cafes and Restaurants,Famous Hot Pot ,-37.81132789,144.9679947,,
1211,Cafes and Restaurants,Tropicana Juice Bar,-37.81354034,144.962548,,
1212,Cafes and Restaurants,Stockroom 567,-37.81902044,144.9557275,,
1213,Cafes and Restaurants,The Old Chamber ,-37.8173062,144.961439,,
1214,Cafes and Restaurants,Hot Space,-37.81150382,144.9669365,,
1215,Cafes and Restaurants,Oter,-37.8157316,144.9700425,,
1216,Cafes and Restaurants,Grill'd,-37.81546152,144.9717262,,
1217,Cafes and Restaurants,Tower Shushi,-37.81281453,144.9701092,,
1218,Cafes and Restaurants,CBD Bakery,-37.81506553,144.9594641,,
1219,Cafes and Restaurants,Maccaroni Trattoria Italiana,-37.81602805,144.9660881,,
1220,Cafes and Restaurants,Lost Angel Bar & Restaurant ,-37.80814522,144.9710147,,
1221,Cafes and Restaurants,Mook Ji Bar,-37.81244232,144.9603254,,
1222,Cafes and Restaurants,Jack Sprat,-37.80864972,144.9684259,,
1223,Cafes and Restaurants,Urban Deli SX1,-37.81281453,144.9701092,,
1224,Cafes and Restaurants,Portello Rosso,-37.81381239,144.9618462,,
1225,Cafes and Restaurants,All 4 U Cafe & Bar,-37.81359291,144.9532342,,
1226,Cafes and Restaurants,Yuzu Cafe & Cuisine,-37.8176551,144.9579514,,
1227,Cafes and Restaurants,N Lee Bakery And Cafe,-37.81309819,144.9716953,,
1228,Cafes and Restaurants,Box On Collins Restaurant,-37.81546677,144.9677066,,
1229,Cafes and Restaurants,The Hardware Societe,-37.81194755,144.9607032,,
1230,Cafes and Restaurants,Mistress Bourke,-37.81571393,144.9561073,,
1231,Cafes and Restaurants,Shuji Sushi,-37.8119837,144.9719053,,
1232,Cafes and Restaurants,Caffe E Biscotti,-37.81528948,144.9642254,,
1233,Cafes and Restaurants,Riverside Deli & Coffee House,-37.81974184,144.9582721,,
1234,Cafes and Restaurants,Shu Grill Bar,-37.80957196,144.9669287,,
1235,Cafes and Restaurants,1st Choice Restaurant ,-37.81098009,144.96853,,
1236,Cafes and Restaurants,Grossi Florentino,-37.81172969,144.9708473,,
1237,Cafes and Restaurants,Gloria Jean's Coffees,-37.81272047,144.9662952,,
1238,Cafes and Restaurants,Gami Chicken and Beer,-37.80913623,144.9687195,,
1239,Cafes and Restaurants,Ling Nam Chinese Restaurant,-37.81199247,144.9665408,,
1240,Cafes and Restaurants,Silhouette's Cafe & Restaurant,-37.81290439,144.955573,,
1241,Cafes and Restaurants,Choix Creperie Cafe,-37.81867544,144.9543505,,
1242,Cafes and Restaurants,Encore Restaurant & Bar,-37.81098009,144.96853,,
1243,Cafes and Restaurants,Shanghai Street,-37.81321386,144.9622831,,
1244,Cafes and Restaurants,Food Stories Chinese Canteen,-37.80869914,144.9687046,,
1245,Cafes and Restaurants,Maha Bar & Grill,-37.81819275,144.9625299,,
1246,Cafes and Restaurants,Goz City,-37.8091842,144.9707325,,
1247,Cafes and Restaurants,Nando's ,-37.80985709,144.9614913,,
1248,Cafes and Restaurants,Ramen Bankara,-37.81272047,144.9662952,,
1249,Cafes and Restaurants,Lobby Lounge,-37.81584777,144.9674304,,
1250,Cafes and Restaurants,Williams Bar Cafe,-37.81943285,144.9595106,,
1251,Cafes and Restaurants,Little Ramen Bar,-37.81321386,144.9622831,,
1252,Cafes and Restaurants,Xtraction ,-37.81244731,144.9558855,,
1253,Cafes and Restaurants,Travistock House Cafe,-37.81825094,144.961389,,
1254,Cafes and Restaurants,Biryani Palace,-37.81349786,144.9548222,,
1255,Cafes and Restaurants,Eurolane Cafe ,-37.8166033,144.9655966,,
1256,Cafes and Restaurants,Great Space Cafe,-37.81430616,144.9726281,,
1257,Cafes and Restaurants,Ho's Cafe  ,-37.81355361,144.9597543,,
1258,Cafes and Restaurants,Cafe 60,-37.81361885,144.9716242,,
1259,Cafes and Restaurants,@T Ease,-37.8112684,144.9666305,,
1260,Cafes and Restaurants,Madam's Kitchen,-37.8091842,144.9707325,,
1261,Cafes and Restaurants,Crossbar Cafe,-37.81784465,144.9699175,,
1262,Cafes and Restaurants,Heirloom ,-37.8130107,144.9694638,,
1263,Cafes and Restaurants,Lonsdale Coffee Delight,-37.80981882,144.9715313,,
1264,Cafes and Restaurants,Vamos,-37.81083595,144.9715059,,
1265,Cafes and Restaurants,The Mill,-37.81323451,144.960908,,
1266,Cafes and Restaurants,Monkey King Bar,-37.81073331,144.9630189,,
1267,Cafes and Restaurants,Pintoh,-37.81292544,144.9686295,,
1268,Cafes and Restaurants,Brother Thomas Coffee,-37.81124428,144.9565783,,
1269,Cafes and Restaurants,CY Sushi & Noodle,-37.80794087,144.9599508,,
1270,Cafes and Restaurants,Lanai Restaurant & Bar,-37.81581152,144.9606367,,
1271,Cafes and Restaurants,Cafe Shots Espresso Bar,-37.81514512,144.9722399,,
1272,Cafes and Restaurants,KCL (Koury's Coffee Lounge) ,-37.81848796,144.9611339,,
1273,Cafes and Restaurants,Podok Rempah,-37.80760291,144.9597917,,
1274,Cafes and Restaurants,Shiraaz at CBD Fine Indian Cuisine,-37.81877654,144.9599653,,
1275,Cafes and Restaurants,SMXL,-37.81477885,144.9563672,,
1276,Cafes and Restaurants,Shanghai Dragon Dumpling House,-37.81246709,144.9676479,,
1277,Cafes and Restaurants,The Mess Hall,-37.81200666,144.9717967,,
1278,Cafes and Restaurants,Shuji Sushi,-37.81946849,144.9586012,,
1279,Cafes and Restaurants,Gordons Cafe & Bar,-37.81473293,144.9643486,,
1280,Cafes and Restaurants,Guzman Y Gomez Swanston Street,-37.8112271,144.9642637,,
1281,Cafes and Restaurants,Kenny's Bakery Cafe ,-37.8134766,144.9560169,,
1282,Cafes and Restaurants,Feast @ 520,-37.81780327,144.9572629,,
1283,Cafes and Restaurants,That's Amore Bistro,-37.81581721,144.9628116,,
1284,Cafes and Restaurants,Papparich,-37.810658,144.9657034,,
1285,Cafes and Restaurants,Delhi Streets,-37.81988484,144.9566017,,
1286,Cafes and Restaurants,Piccolo,-37.8153588,144.9535531,,
1287,Cafes and Restaurants,Ginza Teppanyaki Japanese Restaurant,-37.81206119,144.9685359,,
1288,Cafes and Restaurants,Asian Pavillion ,-37.81430616,144.9726281,,
1289,Cafes and Restaurants,Pallet Espresso,-37.81867544,144.9543505,,
1290,Cafes and Restaurants,Food Inc.,-37.81073331,144.9630189,,
1291,Cafes and Restaurants,Cecconi's Flinders Lane,-37.81506474,144.9725123,,
1292,Cafes and Restaurants,Gloria Jeans,-37.81073331,144.9630189,,
1293,Cafes and Restaurants,Whitte Tomato,-37.81244856,144.9684702,,
1294,Cafes and Restaurants,Ezard,-37.81635789,144.9683751,,
1295,Cafes and Restaurants,KFC,-37.80904283,144.963217,,
1296,Cafes and Restaurants,Gypsy & Pig,-37.81187439,144.9603411,,
1297,Cafes and Restaurants,Deli 1884,-37.81033978,144.9714138,,
1298,Cafes and Restaurants,Bistro Du Peuple,-37.81719967,144.9638971,,
1299,Cafes and Restaurants,Kenny's Bakery Cafe,-37.81452036,144.9599857,,
1300,Cafes and Restaurants,II Tempo Bar,-37.81752037,144.9659973,,
1301,Cafes and Restaurants,Campari Spritz Point,-37.81584777,144.9674304,,
1302,Cafes and Restaurants,Shujinko,-37.81134266,144.9671363,,
1303,Cafes and Restaurants,Thai Chilli Cafe,-37.81098272,144.9676444,,
1304,Cafes and Restaurants,Ume Sushi House,-37.81377588,144.961463,,
1305,Cafes and Restaurants,Little Charley - Brady Hotels Central Melbourne,-37.80917165,144.9626724,,
1306,Cafes and Restaurants,Swiss Club Restaurant,-37.81542975,144.9713925,,
1307,Cafes and Restaurants,Gami At Healeys - Chicken & Beer,-37.8134766,144.9560169,,
1308,Cafes and Restaurants,Kantina Kartel,-37.81753383,144.9574732,,
1309,Cafes and Restaurants,Kalamaki Greek Street Food,-37.81288006,144.9610121,,
1310,Cafes and Restaurants,Tako Sushi Japanses Cafe,-37.81584476,144.9663304,,
1311,Cafes and Restaurants,Il Tempo 2 Pasta,-37.81760781,144.9656264,,
1312,Cafes and Restaurants,Pho Dung Tan Dinh City,-37.81098272,144.9676444,,
1313,Cafes and Restaurants,Three Below,-37.81584777,144.9674304,,
1314,Cafes and Restaurants,The French Brasserie,-37.81546152,144.9717262,,
1315,Cafes and Restaurants,Little Billy,-37.8146364,144.9570408,,
1316,Cafes and Restaurants,Platform 270,-37.81769553,144.9653484,,
1317,Cafes and Restaurants,Caffe Torre,-37.81073331,144.9630189,,
1318,Cafes and Restaurants,Il Tempo 2 Pasta,-37.81760781,144.9656264,,
1319,Cafes and Restaurants,Vapiano,-37.81722704,144.9627888,,
1320,Cafes and Restaurants,Nant 1821,-37.81292437,144.9631276,,
1321,Cafes and Restaurants,Discovery Cafe,-37.80895967,144.9591538,,
1322,Cafes and Restaurants,The Lounge,-37.81230108,144.9647365,,
1323,Cafes and Restaurants,Supper Inn Chinese Restaurant,-37.81188094,144.9661302,,
1324,Cafes and Restaurants,Druids Cafe,-37.80895593,144.9631797,,
1325,Cafes and Restaurants,Flora Indian Restaurant,-37.81733219,144.9663532,,
1326,Cafes and Restaurants,Dip In Cafe,-37.81514598,144.9618186,,
1327,Cafes and Restaurants,Starbucks,-37.81376503,144.9665978,,
1328,Cafes and Restaurants,Kokoro Ramen,-37.81093607,144.9678627,,
1329,Cafes and Restaurants,Spices Indonesian Kitchen,-37.81156167,144.9672365,,
1330,Cafes and Restaurants,Carribbean Grilled Fish by China Chilli,-37.81133175,144.9663534,,
1331,Cafes and Restaurants,Manchester Press,-37.81387847,144.9621262,,
1332,Cafes and Restaurants,The Overdraft Cafe,-37.81728432,144.9624418,,
1333,Cafes and Restaurants,Sofi's Lounge,-37.81430616,144.9726281,,
1334,Cafes and Restaurants,Five Points,-37.81695942,144.956774,,
1335,Cafes and Restaurants,Jaisalmer Palace Indian Restaurant ,-37.81194604,144.9701703,,
1336,Cafes and Restaurants,Coffee 7,-37.81379622,144.9613937,,
1337,Cafes and Restaurants,Rice Paper Scissors Asian Kitchen,-37.81131159,144.9713242,,
1338,Cafes and Restaurants,Sally's Kitchen,-37.80893166,144.9688284,,
1339,Cafes and Restaurants,Subway,-37.81044353,144.9694844,,
1340,Cafes and Restaurants,Piccolocino,-37.81695942,144.956774,,
1341,Cafes and Restaurants,Cafe 34,-37.81798973,144.9624375,,
1342,Cafes and Restaurants,Tadka Boom,-37.81531863,144.9573923,,
1343,Cafes and Restaurants,Larder Section,-37.8138513,144.9612043,,
1344,Cafes and Restaurants,Pork Belly House Melbourne,-37.80728963,144.9620907,,
1345,Cafes and Restaurants,Theobroma Chocolate Lounge,-37.81073331,144.9630189,,
1346,Cafes and Restaurants,La Romana Pizza Al Taglio,-37.81386746,144.9599073,,
1347,Cafes and Restaurants,Desi Dhaba,-37.81629562,144.9704304,,
1348,Cafes and Restaurants,We Cafe,-37.80894099,144.9626101,,
1349,Cafes and Restaurants,Global Kitchen Caffe,-37.80864972,144.9684259,,
1350,Cafes and Restaurants,B3 Cafe,-37.81937993,144.957712,,
1351,Cafes and Restaurants,Raw Trader,-37.81131629,144.9609484,,
1352,Cafes and Restaurants,Bluebag,-37.81745676,144.9611131,,
1353,Cafes and Restaurants,Big Boy BBQ,-37.81398752,144.9612664,,
1354,Cafes and Restaurants,Nashi,-37.81281453,144.9701092,,
1355,Cafes and Restaurants,Om Nom,-37.81635789,144.9683751,,
1356,Cafes and Restaurants,Campari House,-37.81409153,144.9613142,,
1357,Cafes and Restaurants,Shanghai Dynasty Restaurant,-37.81259409,144.9668768,,
1358,Cafes and Restaurants,Jing Jai Thai,-37.81710105,144.9654844,,
1359,Cafes and Restaurants,San Paolo Solarino,-37.81490375,144.9653693,,
1360,Cafes and Restaurants,Cafe On Bourke,-37.81137728,144.971689,,
1361,Cafes and Restaurants,Robot Sushi & Bar,-37.81719967,144.9638971,,
1362,Cafes and Restaurants,Dotonbori,-37.8107204,144.9591368,,
1363,Cafes and Restaurants,Mad Mex,-37.810658,144.9657034,,
1364,Cafes and Restaurants,Cafe Segovia,-37.81528948,144.9642254,,
1365,Cafes and Restaurants,Purple Peanuts Japanese Cafe,-37.81867544,144.9543505,,
1366,Cafes and Restaurants,CoF.E.Fix,-37.81565401,144.9612988,,
1367,Cafes and Restaurants,Tonka Bar & Restaurant,-37.81589712,144.9714735,,
1368,Cafes and Restaurants,Nori Nori,-37.81585501,144.9624392,,
1369,Cafes and Restaurants,Cherry & Twigs,-37.82001952,144.9558379,,
1370,Cafes and Restaurants,Slate Restaurant Bar,-37.81531863,144.9573923,,
1371,Cafes and Restaurants,Father John Cafe,-37.81012699,144.9720594,,
1372,Cafes and Restaurants,Cupcake Central ,-37.81073331,144.9630189,,
1373,Cafes and Restaurants,Laurent Boulangerie Patisserie,-37.81473293,144.9643486,,
1374,Cafes and Restaurants,Tsindos Greek Restaurant,-37.81128456,144.9665765,,
1375,Cafes and Restaurants,Plus 6zer0,-37.81467989,144.9602243,,
1376,Cafes and Restaurants,Red Pepper Indian Restaurant,-37.81127672,144.972413,,
1377,Cafes and Restaurants,Bond Street Kitchen,-37.81829599,144.9625773,,
1378,Cafes and Restaurants,Tina's Noodle Kitchen,-37.81244693,144.9648043,,
1379,Cafes and Restaurants,No 1 Spicey Pot,-37.80894099,144.9626101,,
1380,Cafes and Restaurants,Spaghetti Tree ,-37.81212537,144.9715659,,
1381,Cafes and Restaurants,Masala Grill,-37.81936891,144.9581001,,
1382,Cafes and Restaurants,GJ's Grill,-37.80967009,144.9566627,,
1383,Cafes and Restaurants,Killiney Kopitiam Bourke Street,-37.81170307,144.9697778,,
1384,Cafes and Restaurants,Sarti Restaurant & Bar,-37.81390779,144.9675807,,
1385,Cafes and Restaurants,No 1 Delicious,-37.80816923,144.9617628,,
1386,Cafes and Restaurants,Quanjude Restaurant ,-37.81145082,144.9586601,,
1387,Cafes and Restaurants,Restaurant 1903,-37.81970047,144.9548831,,
1388,Cafes and Restaurants,RMB Cafe,-37.81710105,144.9654844,,
1389,Cafes and Restaurants,Grill'd,-37.81546152,144.9717262,,
1390,Cafes and Restaurants,Hakata Genuke,-37.8122734,144.9681879,,
1391,Cafes and Restaurants,Cafenatics On Church ,-37.81753383,144.9574732,,
1392,Cafes and Restaurants,Healthy Nibbles Cafe,-37.81005686,144.9707149,,
1393,Cafes and Restaurants,Cafe Alcaston,-37.81304887,144.9735468,,
1394,Cafes and Restaurants,Lanes Edge Cafe,-37.81193572,144.9720472,,
1395,Cafes and Restaurants,Ganache Chocolate Lounge,-37.81606673,144.9658313,,
1396,Cafes and Restaurants,Teppanyaki Inn,-37.81479918,144.9674537,,
1397,Cafes and Restaurants,B Churrasco,-37.80919305,144.961749,,
1398,Cafes and Restaurants,Mapo Grill & Bar ,-37.81329521,144.9555653,,
1399,Cafes and Restaurants,Gazi,-37.81546181,144.9727209,,
1400,Cafes and Restaurants,369 Chinese Restaurant,-37.81128986,144.9699123,,
1401,Cafes and Restaurants,Famish'd,-37.81636534,144.9578132,,
1402,Cafes and Restaurants,Coffee Exchange,-37.81260039,144.9731836,,
1403,Cafes and Restaurants,Wood N Chimney,-37.81073331,144.9630189,,
1404,Cafes and Restaurants,Roll'd Southen Cross Lane,-37.81281453,144.9701092,,
1405,Cafes and Restaurants,Klik Cafe ,-37.81010387,144.9604349,,
1406,Cafes and Restaurants,Hash Specialty Coffee And Roasters,-37.81240787,144.9605306,,
1407,Cafes and Restaurants,Level Seven Cafe,-37.80826292,144.9626932,,
1408,Cafes and Restaurants,Cafe Issus,-37.8166033,144.9655966,,
1409,Cafes and Restaurants,Nam Loong Restaurant,-37.81140869,144.9671667,,
1410,Cafes and Restaurants,Tea House At Chinatown,-37.81104301,144.9689152,,
1411,Cafes and Restaurants,Supergrind Cafe,-37.80990475,144.9718354,,
1412,Cafes and Restaurants,Famous Hotpot & BBQ,-37.8115616,144.9691026,,
1413,Cafes and Restaurants,Jin Dumpling And Noodle House,-37.8118553,144.96713,,
1414,Cafes and Restaurants,Yoyogi Japanese Cafe,-37.81284647,144.9650158,,
1415,Cafes and Restaurants,Gue on Brights Place,-37.81290439,144.955573,,
1416,Cafes and Restaurants,Lanai Restaurant & Bar,-37.81581152,144.9606367,,
1417,Cafes and Restaurants,Soi 38,-37.81246632,144.9719189,,
1418,Cafes and Restaurants,Kinfolk Cafe,-37.81721781,144.9541004,,
1419,Cafes and Restaurants,Sushi Sushi ,-37.810658,144.9657034,,
1420,Cafes and Restaurants,Kenny's Bakery Cafe,-37.81005686,144.9707149,,
1421,Cafes and Restaurants,The Attic Artisan Bread And Cafe,-37.81571393,144.9561073,,
1422,Cafes and Restaurants,Sool Tong,-37.81386746,144.9599073,,
1423,Cafes and Restaurants,Izakya Hachibeh,-37.81278439,144.9690422,,
1424,Cafes and Restaurants,Invita,-37.80745984,144.9572395,,
1425,Cafes and Restaurants,Masala Grill,-37.81936891,144.9581001,,
1426,Cafes and Restaurants,Kimchi Tray,-37.81807489,144.9643537,,
1427,Cafes and Restaurants,Chocolate Bar New York,-37.81245199,144.9638386,,
1428,Cafes and Restaurants,Starbucks,-37.81584777,144.9674304,,
1429,Cafes and Restaurants,Allegro Restaurant,-37.81584777,144.9674304,,
1430,Cafes and Restaurants,Hungry Jack's Pty Ltd,-37.81709702,144.9668342,,
1431,Cafes and Restaurants,Pacific BBQ Cafe ,-37.81144245,144.9661427,,
